{"$comment":"Texas ZIP centroids from GeoNames (geonames.org, CC BY 4.0). Used for next-ZIP recommendations and the territory map.","zips":[{"zip":"73301","city":"Austin","county":"Travis","lat":30.3264,"lng":-97.7713},{"zip":"73344","city":"Austin","county":"Travis","lat":30.3264,"lng":-97.7713},{"zip":"73960","city":"Texhoma","county":"Sherman","lat":36.5055,"lng":-101.7829},{"zip":"75001","city":"Addison","county":"Dallas","lat":32.96,"lng":-96.8385},{"zip":"75002","city":"Allen","county":"Collin","lat":33.0934,"lng":-96.6454},{"zip":"75006","city":"Carrollton","county":"Dallas","lat":32.9657,"lng":-96.8825},{"zip":"75007","city":"Carrollton","county":"Denton","lat":33.0033,"lng":-96.882},{"zip":"75009","city":"Celina","county":"Collin","lat":33.3103,"lng":-96.7673},{"zip":"75010","city":"Carrollton","county":"Denton","lat":33.0304,"lng":-96.8777},{"zip":"75011","city":"Carrollton","county":"Dallas","lat":32.9537,"lng":-96.8903},{"zip":"75013","city":"Allen","county":"Collin","lat":33.1186,"lng":-96.6773},{"zip":"75014","city":"Irving","county":"Dallas","lat":32.7673,"lng":-96.7776},{"zip":"75015","city":"Irving","county":"Dallas","lat":32.8987,"lng":-96.9722},{"zip":"75016","city":"Irving","county":"Dallas","lat":32.8987,"lng":-96.9722},{"zip":"75017","city":"Irving","county":"Dallas","lat":32.7673,"lng":-96.7776},{"zip":"75019","city":"Coppell","county":"Dallas","lat":32.9673,"lng":-96.9805},{"zip":"75020","city":"Denison","county":"Grayson","lat":33.745,"lng":-96.5496},{"zip":"75021","city":"Denison","county":"Grayson","lat":33.7169,"lng":-96.5235},{"zip":"75022","city":"Flower Mound","county":"Denton","lat":33.0268,"lng":-97.1193},{"zip":"75023","city":"Plano","county":"Collin","lat":33.055,"lng":-96.7365},{"zip":"75024","city":"Plano","county":"Collin","lat":33.0752,"lng":-96.7843},{"zip":"75025","city":"Plano","county":"Collin","lat":33.0784,"lng":-96.7291},{"zip":"75026","city":"Plano","county":"Collin","lat":33.0198,"lng":-96.6989},{"zip":"75027","city":"Flower Mound","county":"Denton","lat":33.2074,"lng":-97.1163},{"zip":"75028","city":"Flower Mound","county":"Denton","lat":33.0383,"lng":-97.0745},{"zip":"75029","city":"Lewisville","county":"Denton","lat":33.0462,"lng":-96.9942},{"zip":"75030","city":"Rowlett","county":"Dallas","lat":32.9029,"lng":-96.5639},{"zip":"75032","city":"Rockwall","county":"Rockwall","lat":32.886,"lng":-96.4095},{"zip":"75033","city":"Frisco","county":"Collin","lat":33.2559,"lng":-96.8853},{"zip":"75034","city":"Frisco","county":"Collin","lat":33.1499,"lng":-96.8241},{"zip":"75035","city":"Frisco","county":"Collin","lat":33.1377,"lng":-96.7524},{"zip":"75036","city":"Frisco","county":"Collin","lat":33.1499,"lng":-96.8241},{"zip":"75038","city":"Irving","county":"Dallas","lat":32.8653,"lng":-96.9905},{"zip":"75039","city":"Irving","county":"Dallas","lat":32.8697,"lng":-96.9389},{"zip":"75040","city":"Garland","county":"Dallas","lat":32.9227,"lng":-96.6248},{"zip":"75041","city":"Garland","county":"Dallas","lat":32.8794,"lng":-96.6411},{"zip":"75042","city":"Garland","county":"Dallas","lat":32.9185,"lng":-96.6775},{"zip":"75043","city":"Garland","county":"Dallas","lat":32.8565,"lng":-96.5999},{"zip":"75044","city":"Garland","county":"Dallas","lat":32.9522,"lng":-96.6654},{"zip":"75045","city":"Garland","county":"Dallas","lat":32.9137,"lng":-96.6271},{"zip":"75046","city":"Garland","county":"Dallas","lat":32.9126,"lng":-96.6389},{"zip":"75047","city":"Garland","county":"Dallas","lat":32.9126,"lng":-96.6389},{"zip":"75048","city":"Sachse","county":"Dallas","lat":32.9643,"lng":-96.6012},{"zip":"75049","city":"Garland","county":"Dallas","lat":32.9126,"lng":-96.6389},{"zip":"75050","city":"Grand Prairie","county":"Dallas","lat":32.7649,"lng":-97.0112},{"zip":"75051","city":"Grand Prairie","county":"Dallas","lat":32.7115,"lng":-97.0069},{"zip":"75052","city":"Grand Prairie","county":"Dallas","lat":32.6605,"lng":-97.0311},{"zip":"75053","city":"Grand Prairie","county":"Dallas","lat":32.746,"lng":-96.9978},{"zip":"75054","city":"Grand Prairie","county":"Dallas","lat":32.5907,"lng":-97.0405},{"zip":"75056","city":"The Colony","county":"Denton","lat":33.094,"lng":-96.8836},{"zip":"75057","city":"Lewisville","county":"Denton","lat":33.0532,"lng":-96.9999},{"zip":"75058","city":"Gunter","county":"Grayson","lat":33.4495,"lng":-96.7341},{"zip":"75059","city":"Irving","county":"Dallas","lat":32.8023,"lng":-96.9597},{"zip":"75060","city":"Irving","county":"Dallas","lat":32.8023,"lng":-96.9597},{"zip":"75061","city":"Irving","county":"Dallas","lat":32.8267,"lng":-96.9633},{"zip":"75062","city":"Irving","county":"Dallas","lat":32.8479,"lng":-96.974},{"zip":"75063","city":"Irving","county":"Dallas","lat":32.9247,"lng":-96.9598},{"zip":"75064","city":"Irving","county":"Dallas","lat":32.9247,"lng":-96.9598},{"zip":"75065","city":"Lake Dallas","county":"Denton","lat":33.1219,"lng":-97.0237},{"zip":"75067","city":"Lewisville","county":"Denton","lat":33.0198,"lng":-96.9925},{"zip":"75068","city":"Little Elm","county":"Denton","lat":33.1768,"lng":-96.9583},{"zip":"75069","city":"Mckinney","county":"Collin","lat":33.1976,"lng":-96.6153},{"zip":"75070","city":"Mckinney","county":"Collin","lat":33.1976,"lng":-96.6153},{"zip":"75071","city":"Mckinney","county":"Collin","lat":33.1976,"lng":-96.6153},{"zip":"75072","city":"Mckinney","county":"Collin","lat":33.1976,"lng":-96.6153},{"zip":"75074","city":"Plano","county":"Collin","lat":33.0277,"lng":-96.6777},{"zip":"75075","city":"Plano","county":"Collin","lat":33.025,"lng":-96.7397},{"zip":"75076","city":"Pottsboro","county":"Grayson","lat":33.8095,"lng":-96.6906},{"zip":"75077","city":"Lewisville","county":"Denton","lat":33.0775,"lng":-97.0704},{"zip":"75078","city":"Prosper","county":"Collin","lat":33.2362,"lng":-96.7954},{"zip":"75080","city":"Richardson","county":"Dallas","lat":32.966,"lng":-96.7452},{"zip":"75081","city":"Richardson","county":"Dallas","lat":32.9462,"lng":-96.7058},{"zip":"75082","city":"Richardson","county":"Dallas","lat":32.9865,"lng":-96.686},{"zip":"75083","city":"Richardson","county":"Dallas","lat":32.7673,"lng":-96.7776},{"zip":"75085","city":"Richardson","county":"Dallas","lat":32.7673,"lng":-96.7776},{"zip":"75086","city":"Plano","county":"Collin","lat":33.0198,"lng":-96.6989},{"zip":"75087","city":"Rockwall","county":"Rockwall","lat":32.9492,"lng":-96.4418},{"zip":"75088","city":"Rowlett","county":"Dallas","lat":32.9031,"lng":-96.5472},{"zip":"75089","city":"Rowlett","county":"Dallas","lat":32.9346,"lng":-96.5544},{"zip":"75090","city":"Sherman","county":"Grayson","lat":33.6435,"lng":-96.6075},{"zip":"75091","city":"Sherman","county":"Grayson","lat":33.6357,"lng":-96.6089},{"zip":"75092","city":"Sherman","county":"Grayson","lat":33.6372,"lng":-96.6184},{"zip":"75093","city":"Plano","county":"Collin","lat":33.0299,"lng":-96.7889},{"zip":"75094","city":"Plano","county":"Collin","lat":33.0148,"lng":-96.6189},{"zip":"75097","city":"Weston","county":"Collin","lat":33.3512,"lng":-96.6646},{"zip":"75098","city":"Wylie","county":"Dallas","lat":33.0041,"lng":-96.5394},{"zip":"75099","city":"Coppell","county":"Dallas","lat":32.9546,"lng":-97.015},{"zip":"75101","city":"Bardwell","county":"Ellis","lat":32.2731,"lng":-96.703},{"zip":"75102","city":"Barry","county":"Navarro","lat":32.1014,"lng":-96.6251},{"zip":"75103","city":"Canton","county":"Van Zandt","lat":32.5143,"lng":-95.9047},{"zip":"75104","city":"Cedar Hill","county":"Dallas","lat":32.5885,"lng":-96.9438},{"zip":"75105","city":"Chatfield","county":"Navarro","lat":32.2954,"lng":-96.3887},{"zip":"75106","city":"Cedar Hill","county":"Dallas","lat":32.5885,"lng":-96.9561},{"zip":"75109","city":"Corsicana","county":"Navarro","lat":31.9937,"lng":-96.4199},{"zip":"75110","city":"Corsicana","county":"Navarro","lat":32.0868,"lng":-96.4762},{"zip":"75114","city":"Crandall","county":"Kaufman","lat":32.6279,"lng":-96.4558},{"zip":"75115","city":"Desoto","county":"Dallas","lat":32.6041,"lng":-96.8653},{"zip":"75116","city":"Duncanville","county":"Dallas","lat":32.6587,"lng":-96.9114},{"zip":"75117","city":"Edgewood","county":"Van Zandt","lat":32.7003,"lng":-95.878},{"zip":"75118","city":"Elmo","county":"Kaufman","lat":32.5996,"lng":-96.3027},{"zip":"75119","city":"Ennis","county":"Ellis","lat":32.3321,"lng":-96.6224},{"zip":"75120","city":"Ennis","county":"Ellis","lat":32.3347,"lng":-96.6335},{"zip":"75121","city":"Copeville","county":"Collin","lat":33.0875,"lng":-96.4186},{"zip":"75123","city":"Desoto","county":"Dallas","lat":32.5899,"lng":-96.8569},{"zip":"75124","city":"Eustace","county":"Henderson","lat":32.2965,"lng":-96.0137},{"zip":"75125","city":"Ferris","county":"Ellis","lat":32.5223,"lng":-96.6643},{"zip":"75126","city":"Forney","county":"Kaufman","lat":32.7491,"lng":-96.4598},{"zip":"75127","city":"Fruitvale","county":"Van Zandt","lat":32.677,"lng":-95.7899},{"zip":"75132","city":"Fate","county":"Rockwall","lat":32.9415,"lng":-96.3814},{"zip":"75134","city":"Lancaster","county":"Dallas","lat":32.6161,"lng":-96.783},{"zip":"75135","city":"Caddo Mills","county":"Hunt","lat":33.0683,"lng":-96.2391},{"zip":"75137","city":"Duncanville","county":"Dallas","lat":32.6347,"lng":-96.9113},{"zip":"75138","city":"Duncanville","county":"Dallas","lat":32.7673,"lng":-96.7776},{"zip":"75140","city":"Grand Saline","county":"Van Zandt","lat":32.6635,"lng":-95.7064},{"zip":"75141","city":"Hutchins","county":"Dallas","lat":32.6396,"lng":-96.707},{"zip":"75142","city":"Kaufman","county":"Kaufman","lat":32.546,"lng":-96.2852},{"zip":"75143","city":"Kemp","county":"Henderson","lat":32.2486,"lng":-96.2161},{"zip":"75144","city":"Kerens","county":"Navarro","lat":32.1275,"lng":-96.2298},{"zip":"75146","city":"Lancaster","county":"Dallas","lat":32.5914,"lng":-96.7728},{"zip":"75147","city":"Mabank","county":"Kaufman","lat":32.3685,"lng":-96.0685},{"zip":"75148","city":"Malakoff","county":"Henderson","lat":32.1705,"lng":-96.006},{"zip":"75149","city":"Mesquite","county":"Dallas","lat":32.7678,"lng":-96.6082},{"zip":"75150","city":"Mesquite","county":"Dallas","lat":32.8154,"lng":-96.6307},{"zip":"75151","city":"Corsicana","county":"Navarro","lat":32.0624,"lng":-96.4735},{"zip":"75152","city":"Palmer","county":"Ellis","lat":32.4387,"lng":-96.6794},{"zip":"75153","city":"Powell","county":"Navarro","lat":32.1196,"lng":-96.3327},{"zip":"75154","city":"Red Oak","county":"Ellis","lat":32.5185,"lng":-96.8071},{"zip":"75155","city":"Rice","county":"Ellis","lat":32.2258,"lng":-96.4606},{"zip":"75156","city":"Mabank","county":"Kaufman","lat":32.2972,"lng":-96.1184},{"zip":"75157","city":"Rosser","county":"Kaufman","lat":32.4626,"lng":-96.4533},{"zip":"75158","city":"Scurry","county":"Kaufman","lat":32.4818,"lng":-96.3925},{"zip":"75159","city":"Seagoville","county":"Dallas","lat":32.6525,"lng":-96.558},{"zip":"75160","city":"Terrell","county":"Kaufman","lat":32.7515,"lng":-96.2831},{"zip":"75161","city":"Terrell","county":"Kaufman","lat":32.7332,"lng":-96.195},{"zip":"75163","city":"Trinidad","county":"Henderson","lat":32.1383,"lng":-96.0831},{"zip":"75164","city":"Josephine","county":"Collin","lat":33.0612,"lng":-96.3072},{"zip":"75165","city":"Waxahachie","county":"Ellis","lat":32.3808,"lng":-96.8374},{"zip":"75166","city":"Lavon","county":"Collin","lat":33.0139,"lng":-96.4377},{"zip":"75167","city":"Waxahachie","county":"Ellis","lat":32.3773,"lng":-96.9162},{"zip":"75168","city":"Waxahachie","county":"Ellis","lat":32.3749,"lng":-96.7166},{"zip":"75169","city":"Wills Point","county":"Van Zandt","lat":32.7283,"lng":-96.0079},{"zip":"75172","city":"Wilmer","county":"Dallas","lat":32.5981,"lng":-96.6838},{"zip":"75173","city":"Nevada","county":"Collin","lat":33.0593,"lng":-96.3877},{"zip":"75180","city":"Balch Springs","county":"Dallas","lat":32.7287,"lng":-96.6228},{"zip":"75181","city":"Mesquite","county":"Dallas","lat":32.7272,"lng":-96.5669},{"zip":"75182","city":"Sunnyvale","county":"Dallas","lat":32.797,"lng":-96.5616},{"zip":"75185","city":"Mesquite","county":"Dallas","lat":32.7403,"lng":-96.5618},{"zip":"75187","city":"Mesquite","county":"Dallas","lat":32.7673,"lng":-96.7776},{"zip":"75189","city":"Royse City","county":"Rockwall","lat":32.9628,"lng":-96.3648},{"zip":"75201","city":"Dallas","county":"Dallas","lat":32.7904,"lng":-96.8044},{"zip":"75202","city":"Dallas","county":"Dallas","lat":32.7781,"lng":-96.8054},{"zip":"75203","city":"Dallas","county":"Dallas","lat":32.746,"lng":-96.807},{"zip":"75204","city":"Dallas","county":"Dallas","lat":32.8038,"lng":-96.7851},{"zip":"75205","city":"Dallas","county":"Dallas","lat":32.826,"lng":-96.7843},{"zip":"75206","city":"Dallas","county":"Dallas","lat":32.831,"lng":-96.7692},{"zip":"75207","city":"Dallas","county":"Dallas","lat":32.7939,"lng":-96.8319},{"zip":"75208","city":"Dallas","county":"Dallas","lat":32.7492,"lng":-96.8389},{"zip":"75209","city":"Dallas","county":"Dallas","lat":32.8456,"lng":-96.826},{"zip":"75210","city":"Dallas","county":"Dallas","lat":32.7699,"lng":-96.743},{"zip":"75211","city":"Dallas","county":"Dallas","lat":32.7319,"lng":-96.9057},{"zip":"75212","city":"Dallas","county":"Dallas","lat":32.7829,"lng":-96.8714},{"zip":"75214","city":"Dallas","county":"Dallas","lat":32.8248,"lng":-96.7498},{"zip":"75215","city":"Dallas","county":"Dallas","lat":32.7582,"lng":-96.7623},{"zip":"75216","city":"Dallas","county":"Dallas","lat":32.7086,"lng":-96.7955},{"zip":"75217","city":"Dallas","county":"Dallas","lat":32.7244,"lng":-96.6755},{"zip":"75218","city":"Dallas","county":"Dallas","lat":32.8463,"lng":-96.6972},{"zip":"75219","city":"Dallas","county":"Dallas","lat":32.8132,"lng":-96.8142},{"zip":"75220","city":"Dallas","county":"Dallas","lat":32.8681,"lng":-96.8622},{"zip":"75221","city":"Dallas","county":"Dallas","lat":32.8147,"lng":-96.7877},{"zip":"75222","city":"Dallas","county":"Dallas","lat":32.7673,"lng":-96.7776},{"zip":"75223","city":"Dallas","county":"Dallas","lat":32.7942,"lng":-96.7475},{"zip":"75224","city":"Dallas","county":"Dallas","lat":32.7114,"lng":-96.8387},{"zip":"75225","city":"Dallas","county":"Dallas","lat":32.8628,"lng":-96.7918},{"zip":"75226","city":"Dallas","county":"Dallas","lat":32.7887,"lng":-96.7676},{"zip":"75227","city":"Dallas","county":"Dallas","lat":32.7672,"lng":-96.6836},{"zip":"75228","city":"Dallas","county":"Dallas","lat":32.825,"lng":-96.6784},{"zip":"75229","city":"Dallas","county":"Dallas","lat":32.8958,"lng":-96.8588},{"zip":"75230","city":"Dallas","county":"Dallas","lat":32.8999,"lng":-96.7897},{"zip":"75231","city":"Dallas","county":"Dallas","lat":32.8756,"lng":-96.7495},{"zip":"75232","city":"Dallas","county":"Dallas","lat":32.6647,"lng":-96.8384},{"zip":"75233","city":"Dallas","county":"Dallas","lat":32.7046,"lng":-96.8725},{"zip":"75234","city":"Dallas","county":"Dallas","lat":32.9245,"lng":-96.8938},{"zip":"75235","city":"Dallas","county":"Dallas","lat":32.8252,"lng":-96.8388},{"zip":"75236","city":"Dallas","county":"Dallas","lat":32.69,"lng":-96.9177},{"zip":"75237","city":"Dallas","county":"Dallas","lat":32.659,"lng":-96.8765},{"zip":"75238","city":"Dallas","county":"Dallas","lat":32.877,"lng":-96.708},{"zip":"75240","city":"Dallas","county":"Dallas","lat":32.9374,"lng":-96.7872},{"zip":"75241","city":"Dallas","county":"Dallas","lat":32.6722,"lng":-96.7774},{"zip":"75242","city":"Dallas","county":"Dallas","lat":32.7673,"lng":-96.7776},{"zip":"75243","city":"Dallas","county":"Dallas","lat":32.9103,"lng":-96.7285},{"zip":"75244","city":"Dallas","county":"Dallas","lat":32.9322,"lng":-96.8353},{"zip":"75246","city":"Dallas","county":"Dallas","lat":32.7948,"lng":-96.7697},{"zip":"75247","city":"Dallas","county":"Dallas","lat":32.8152,"lng":-96.8703},{"zip":"75248","city":"Dallas","county":"Dallas","lat":32.9682,"lng":-96.7942},{"zip":"75249","city":"Dallas","county":"Dallas","lat":32.636,"lng":-96.9493},{"zip":"75250","city":"Dallas","county":"Dallas","lat":32.7673,"lng":-96.7776},{"zip":"75251","city":"Dallas","county":"Dallas","lat":32.9189,"lng":-96.7751},{"zip":"75252","city":"Dallas","county":"Dallas","lat":32.9968,"lng":-96.7921},{"zip":"75253","city":"Dallas","county":"Dallas","lat":32.6833,"lng":-96.5964},{"zip":"75254","city":"Dallas","county":"Dallas","lat":32.9503,"lng":-96.819},{"zip":"75260","city":"Dallas","county":"Dallas","lat":32.7673,"lng":-96.7776},{"zip":"75261","city":"Dallas","county":"Dallas","lat":32.7673,"lng":-96.7776},{"zip":"75262","city":"Dallas","county":"Dallas","lat":32.7673,"lng":-96.7776},{"zip":"75263","city":"Dallas","county":"Dallas","lat":32.7673,"lng":-96.7776},{"zip":"75264","city":"Dallas","county":"Dallas","lat":32.7673,"lng":-96.7776},{"zip":"75265","city":"Dallas","county":"Dallas","lat":32.7673,"lng":-96.7776},{"zip":"75266","city":"Dallas","county":"Dallas","lat":32.7673,"lng":-96.7776},{"zip":"75267","city":"Dallas","county":"Dallas","lat":32.7673,"lng":-96.7776},{"zip":"75270","city":"Dallas","county":"Dallas","lat":32.7813,"lng":-96.8019},{"zip":"75275","city":"Dallas","county":"Dallas","lat":32.7673,"lng":-96.7776},{"zip":"75277","city":"Dallas","county":"Dallas","lat":32.7673,"lng":-96.7776},{"zip":"75283","city":"Dallas","county":"Dallas","lat":32.7673,"lng":-96.7776},{"zip":"75284","city":"Dallas","county":"Dallas","lat":32.7673,"lng":-96.7776},{"zip":"75285","city":"Dallas","county":"Dallas","lat":32.7673,"lng":-96.7776},{"zip":"75287","city":"Dallas","county":"Dallas","lat":33.0005,"lng":-96.8314},{"zip":"75301","city":"Dallas","county":"Dallas","lat":32.7673,"lng":-96.7776},{"zip":"75303","city":"Dallas","county":"Dallas","lat":32.7673,"lng":-96.7776},{"zip":"75312","city":"Dallas","county":"Dallas","lat":32.7673,"lng":-96.7776},{"zip":"75313","city":"Dallas","county":"Dallas","lat":32.7673,"lng":-96.7776},{"zip":"75315","city":"Dallas","county":"Dallas","lat":32.7673,"lng":-96.7776},{"zip":"75320","city":"Dallas","county":"Dallas","lat":32.7673,"lng":-96.7776},{"zip":"75326","city":"Dallas","county":"Dallas","lat":32.7673,"lng":-96.7776},{"zip":"75336","city":"Dallas","county":"Dallas","lat":32.7673,"lng":-96.7776},{"zip":"75339","city":"Dallas","county":"Dallas","lat":32.7673,"lng":-96.7776},{"zip":"75342","city":"Dallas","county":"Dallas","lat":32.7673,"lng":-96.7776},{"zip":"75354","city":"Dallas","county":"Dallas","lat":32.7673,"lng":-96.7776},{"zip":"75355","city":"Dallas","county":"Dallas","lat":32.7673,"lng":-96.7776},{"zip":"75356","city":"Dallas","county":"Dallas","lat":32.7673,"lng":-96.7776},{"zip":"75357","city":"Dallas","county":"Dallas","lat":32.7673,"lng":-96.7776},{"zip":"75358","city":"Dallas","county":"Dallas","lat":32.7942,"lng":-96.7652},{"zip":"75359","city":"Dallas","county":"Dallas","lat":32.7673,"lng":-96.7776},{"zip":"75360","city":"Dallas","county":"Dallas","lat":32.7673,"lng":-96.7776},{"zip":"75367","city":"Dallas","county":"Dallas","lat":32.7673,"lng":-96.7776},{"zip":"75368","city":"Dallas","county":"Dallas","lat":32.7673,"lng":-96.7776},{"zip":"75370","city":"Dallas","county":"Dallas","lat":32.7673,"lng":-96.7776},{"zip":"75371","city":"Dallas","county":"Dallas","lat":32.7673,"lng":-96.7776},{"zip":"75372","city":"Dallas","county":"Dallas","lat":32.7673,"lng":-96.7776},{"zip":"75373","city":"Dallas","county":"Dallas","lat":32.7673,"lng":-96.7776},{"zip":"75374","city":"Dallas","county":"Dallas","lat":32.7673,"lng":-96.7776},{"zip":"75376","city":"Dallas","county":"Dallas","lat":32.7673,"lng":-96.7776},{"zip":"75378","city":"Dallas","county":"Dallas","lat":32.7673,"lng":-96.7776},{"zip":"75379","city":"Dallas","county":"Dallas","lat":32.7673,"lng":-96.7776},{"zip":"75380","city":"Dallas","county":"Dallas","lat":32.7673,"lng":-96.7776},{"zip":"75381","city":"Dallas","county":"Dallas","lat":32.7673,"lng":-96.7776},{"zip":"75382","city":"Dallas","county":"Dallas","lat":32.7673,"lng":-96.7776},{"zip":"75389","city":"Dallas","county":"Dallas","lat":32.7673,"lng":-96.7776},{"zip":"75390","city":"Dallas","county":"Dallas","lat":32.7673,"lng":-96.7776},{"zip":"75391","city":"Dallas","county":"Dallas","lat":32.7673,"lng":-96.7776},{"zip":"75392","city":"Dallas","county":"Dallas","lat":32.7673,"lng":-96.7776},{"zip":"75393","city":"Dallas","county":"Dallas","lat":32.7673,"lng":-96.7776},{"zip":"75394","city":"Dallas","county":"Dallas","lat":32.7673,"lng":-96.7776},{"zip":"75395","city":"Dallas","county":"Dallas","lat":32.7673,"lng":-96.7776},{"zip":"75397","city":"Dallas","county":"Dallas","lat":32.7673,"lng":-96.7776},{"zip":"75398","city":"Dallas","county":"Dallas","lat":32.7673,"lng":-96.7776},{"zip":"75401","city":"Greenville","county":"Hunt","lat":33.1854,"lng":-96.1304},{"zip":"75402","city":"Greenville","county":"Hunt","lat":33.1047,"lng":-96.0927},{"zip":"75403","city":"Greenville","county":"Hunt","lat":33.2185,"lng":-96.0487},{"zip":"75404","city":"Greenville","county":"Hunt","lat":33.0563,"lng":-96.081},{"zip":"75407","city":"Princeton","county":"Collin","lat":33.1555,"lng":-96.4981},{"zip":"75409","city":"Anna","county":"Collin","lat":33.3445,"lng":-96.5639},{"zip":"75410","city":"Alba","county":"Rains","lat":32.7652,"lng":-95.5971},{"zip":"75411","city":"Arthur City","county":"Lamar","lat":33.8643,"lng":-95.6111},{"zip":"75412","city":"Bagwell","county":"Red River","lat":33.8361,"lng":-95.1487},{"zip":"75413","city":"Bailey","county":"Fannin","lat":33.43,"lng":-96.1662},{"zip":"75414","city":"Bells","county":"Grayson","lat":33.6178,"lng":-96.4237},{"zip":"75415","city":"Ben Franklin","county":"Delta","lat":33.4768,"lng":-95.7689},{"zip":"75416","city":"Blossom","county":"Lamar","lat":33.6945,"lng":-95.3823},{"zip":"75417","city":"Bogata","county":"Red River","lat":33.4699,"lng":-95.1937},{"zip":"75418","city":"Bonham","county":"Fannin","lat":33.5806,"lng":-96.1836},{"zip":"75420","city":"Brashear","county":"Hopkins","lat":33.1155,"lng":-95.7345},{"zip":"75421","city":"Brookston","county":"Lamar","lat":33.6246,"lng":-95.6888},{"zip":"75422","city":"Campbell","county":"Hunt","lat":33.151,"lng":-95.9439},{"zip":"75423","city":"Celeste","county":"Hunt","lat":33.2649,"lng":-96.2076},{"zip":"75424","city":"Blue Ridge","county":"Collin","lat":33.3061,"lng":-96.3901},{"zip":"75425","city":"Chicota","county":"Lamar","lat":33.869,"lng":-95.5711},{"zip":"75426","city":"Clarksville","county":"Red River","lat":33.6236,"lng":-95.0461},{"zip":"75428","city":"Commerce","county":"Hunt","lat":33.2493,"lng":-95.9097},{"zip":"75429","city":"Commerce","county":"Hunt","lat":33.2377,"lng":-95.9089},{"zip":"75431","city":"Como","county":"Hopkins","lat":33.0107,"lng":-95.4734},{"zip":"75432","city":"Cooper","county":"Delta","lat":33.3812,"lng":-95.6623},{"zip":"75433","city":"Cumby","county":"Hopkins","lat":33.1118,"lng":-95.7945},{"zip":"75434","city":"Cunningham","county":"Lamar","lat":33.409,"lng":-95.3711},{"zip":"75435","city":"Deport","county":"Lamar","lat":33.5221,"lng":-95.3654},{"zip":"75436","city":"Detroit","county":"Red River","lat":33.6627,"lng":-95.2385},{"zip":"75437","city":"Dike","county":"Hopkins","lat":33.2648,"lng":-95.4423},{"zip":"75438","city":"Dodd City","county":"Fannin","lat":33.5647,"lng":-96.0619},{"zip":"75439","city":"Ector","county":"Fannin","lat":33.5819,"lng":-96.2735},{"zip":"75440","city":"Emory","county":"Rains","lat":32.875,"lng":-95.7418},{"zip":"75441","city":"Enloe","county":"Delta","lat":33.4291,"lng":-95.6518},{"zip":"75442","city":"Farmersville","county":"Collin","lat":33.1659,"lng":-96.3686},{"zip":"75443","city":"Gober","county":"Fannin","lat":33.4697,"lng":-96.1111},{"zip":"75444","city":"Golden","county":"Wood","lat":32.7299,"lng":-95.5636},{"zip":"75446","city":"Honey Grove","county":"Fannin","lat":33.5985,"lng":-95.9109},{"zip":"75447","city":"Ivanhoe","county":"Fannin","lat":33.7612,"lng":-96.1193},{"zip":"75448","city":"Klondike","county":"Delta","lat":33.3034,"lng":-95.8018},{"zip":"75449","city":"Ladonia","county":"Fannin","lat":33.4245,"lng":-95.9455},{"zip":"75450","city":"Lake Creek","county":"Delta","lat":33.4116,"lng":-95.4551},{"zip":"75451","city":"Leesburg","county":"Camp","lat":32.9763,"lng":-95.1079},{"zip":"75452","city":"Leonard","county":"Fannin","lat":33.3796,"lng":-96.2475},{"zip":"75453","city":"Lone Oak","county":"Hunt","lat":32.9916,"lng":-95.9434},{"zip":"75454","city":"Melissa","county":"Collin","lat":33.2841,"lng":-96.574},{"zip":"75455","city":"Mount Pleasant","county":"Titus","lat":33.1733,"lng":-94.9695},{"zip":"75456","city":"Mount Pleasant","county":"Titus","lat":33.1568,"lng":-94.9683},{"zip":"75457","city":"Mount Vernon","county":"Franklin","lat":33.1702,"lng":-95.2181},{"zip":"75458","city":"Merit","county":"Hunt","lat":33.2427,"lng":-96.2916},{"zip":"75459","city":"Howe","county":"Grayson","lat":33.5311,"lng":-96.6777},{"zip":"75460","city":"Paris","county":"Lamar","lat":33.6581,"lng":-95.5379},{"zip":"75461","city":"Paris","county":"Lamar","lat":33.6609,"lng":-95.5555},{"zip":"75462","city":"Paris","county":"Lamar","lat":33.6805,"lng":-95.4905},{"zip":"75468","city":"Pattonville","county":"Lamar","lat":33.5702,"lng":-95.3908},{"zip":"75469","city":"Pecan Gap","county":"Delta","lat":33.4196,"lng":-95.8262},{"zip":"75470","city":"Petty","county":"Lamar","lat":33.6098,"lng":-95.7891},{"zip":"75471","city":"Pickton","county":"Hopkins","lat":33.0519,"lng":-95.3851},{"zip":"75472","city":"Point","county":"Rains","lat":32.9007,"lng":-95.8903},{"zip":"75473","city":"Powderly","county":"Lamar","lat":33.7779,"lng":-95.5307},{"zip":"75474","city":"Quinlan","county":"Hunt","lat":32.8983,"lng":-96.1261},{"zip":"75475","city":"Randolph","county":"Fannin","lat":33.4846,"lng":-96.2541},{"zip":"75476","city":"Ravenna","county":"Fannin","lat":33.7098,"lng":-96.1452},{"zip":"75477","city":"Roxton","county":"Lamar","lat":33.5429,"lng":-95.7416},{"zip":"75478","city":"Saltillo","county":"Hopkins","lat":33.1767,"lng":-95.3433},{"zip":"75479","city":"Savoy","county":"Fannin","lat":33.6066,"lng":-96.3502},{"zip":"75480","city":"Scroggins","county":"Franklin","lat":33.0478,"lng":-95.1962},{"zip":"75481","city":"Sulphur Bluff","county":"Hopkins","lat":33.3334,"lng":-95.374},{"zip":"75482","city":"Sulphur Springs","county":"Hopkins","lat":33.1345,"lng":-95.5922},{"zip":"75483","city":"Sulphur Springs","county":"Hopkins","lat":33.1384,"lng":-95.6011},{"zip":"75485","city":"Westminster","county":"Collin","lat":33.3627,"lng":-96.4635},{"zip":"75486","city":"Sumner","county":"Lamar","lat":33.7589,"lng":-95.6807},{"zip":"75487","city":"Talco","county":"Franklin","lat":33.3344,"lng":-95.0497},{"zip":"75488","city":"Telephone","county":"Fannin","lat":33.7979,"lng":-96.0449},{"zip":"75489","city":"Tom Bean","county":"Grayson","lat":33.5193,"lng":-96.4843},{"zip":"75490","city":"Trenton","county":"Fannin","lat":33.4235,"lng":-96.3398},{"zip":"75491","city":"Whitewright","county":"Grayson","lat":33.519,"lng":-96.451},{"zip":"75492","city":"Windom","county":"Fannin","lat":33.5633,"lng":-96.002},{"zip":"75493","city":"Winfield","county":"Titus","lat":33.1673,"lng":-95.1119},{"zip":"75494","city":"Winnsboro","county":"Wood","lat":32.9146,"lng":-95.2726},{"zip":"75495","city":"Van Alstyne","county":"Grayson","lat":33.4292,"lng":-96.5486},{"zip":"75496","city":"Wolfe City","county":"Hunt","lat":33.3605,"lng":-96.0691},{"zip":"75497","city":"Yantis","county":"Wood","lat":32.9257,"lng":-95.5311},{"zip":"75501","city":"Texarkana","county":"Bowie","lat":33.4113,"lng":-94.1774},{"zip":"75503","city":"Texarkana","county":"Bowie","lat":33.4669,"lng":-94.0774},{"zip":"75504","city":"Texarkana","county":"Bowie","lat":33.4251,"lng":-94.0477},{"zip":"75505","city":"Texarkana","county":"Bowie","lat":33.4624,"lng":-94.0715},{"zip":"75507","city":"Texarkana","county":"Bowie","lat":33.4251,"lng":-94.0477},{"zip":"75550","city":"Annona","county":"Red River","lat":33.5535,"lng":-94.8992},{"zip":"75551","city":"Atlanta","county":"Cass","lat":33.109,"lng":-94.1646},{"zip":"75554","city":"Avery","county":"Red River","lat":33.5339,"lng":-94.7867},{"zip":"75555","city":"Bivins","county":"Cass","lat":32.966,"lng":-94.1404},{"zip":"75556","city":"Bloomburg","county":"Cass","lat":33.1339,"lng":-94.0647},{"zip":"75558","city":"Cookville","county":"Titus","lat":33.2432,"lng":-94.8747},{"zip":"75559","city":"De Kalb","county":"Bowie","lat":33.5087,"lng":-94.6163},{"zip":"75560","city":"Douglassville","county":"Cass","lat":33.1758,"lng":-94.3467},{"zip":"75561","city":"Hooks","county":"Bowie","lat":33.5253,"lng":-94.2657},{"zip":"75562","city":"Kildare","county":"Cass","lat":32.9468,"lng":-94.2539},{"zip":"75563","city":"Linden","county":"Cass","lat":33.0048,"lng":-94.3605},{"zip":"75564","city":"Lodi","county":"Marion","lat":32.8718,"lng":-94.2729},{"zip":"75565","city":"Mc Leod","county":"Cass","lat":32.9511,"lng":-94.0808},{"zip":"75566","city":"Marietta","county":"Cass","lat":33.1735,"lng":-94.5424},{"zip":"75567","city":"Maud","county":"Bowie","lat":33.3409,"lng":-94.3175},{"zip":"75568","city":"Naples","county":"Morris","lat":33.1912,"lng":-94.6891},{"zip":"75569","city":"Nash","county":"Bowie","lat":33.4344,"lng":-94.1219},{"zip":"75570","city":"New Boston","county":"Bowie","lat":33.4619,"lng":-94.4375},{"zip":"75571","city":"Omaha","county":"Morris","lat":33.1808,"lng":-94.7639},{"zip":"75572","city":"Queen City","county":"Cass","lat":33.1557,"lng":-94.1537},{"zip":"75573","city":"Redwater","county":"Bowie","lat":33.358,"lng":-94.2571},{"zip":"75574","city":"Simms","county":"Bowie","lat":33.3359,"lng":-94.552},{"zip":"75599","city":"Texarkana","county":"Bowie","lat":33.4251,"lng":-94.0477},{"zip":"75601","city":"Longview","county":"Gregg","lat":32.5178,"lng":-94.7303},{"zip":"75602","city":"Longview","county":"Gregg","lat":32.4724,"lng":-94.7101},{"zip":"75603","city":"Longview","county":"Gregg","lat":32.4264,"lng":-94.7117},{"zip":"75604","city":"Longview","county":"Gregg","lat":32.5251,"lng":-94.799},{"zip":"75605","city":"Longview","county":"Gregg","lat":32.5547,"lng":-94.7767},{"zip":"75606","city":"Longview","county":"Gregg","lat":32.5007,"lng":-94.7405},{"zip":"75607","city":"Longview","county":"Gregg","lat":32.5112,"lng":-94.7835},{"zip":"75608","city":"Longview","county":"Gregg","lat":32.5701,"lng":-94.8481},{"zip":"75615","city":"Longview","county":"Gregg","lat":32.5112,"lng":-94.7835},{"zip":"75630","city":"Avinger","county":"Cass","lat":32.8485,"lng":-94.5795},{"zip":"75631","city":"Beckville","county":"Panola","lat":32.2452,"lng":-94.4555},{"zip":"75633","city":"Carthage","county":"Panola","lat":32.1544,"lng":-94.3527},{"zip":"75636","city":"Cason","county":"Morris","lat":33.024,"lng":-94.8249},{"zip":"75637","city":"Clayton","county":"Panola","lat":32.1027,"lng":-94.4935},{"zip":"75638","city":"Daingerfield","county":"Morris","lat":33.0313,"lng":-94.7359},{"zip":"75639","city":"De Berry","county":"Panola","lat":32.2543,"lng":-94.1356},{"zip":"75640","city":"Diana","county":"Upshur","lat":32.7698,"lng":-94.7032},{"zip":"75641","city":"Easton","county":"Gregg","lat":32.3874,"lng":-94.583},{"zip":"75642","city":"Elysian Fields","county":"Harrison","lat":32.3685,"lng":-94.183},{"zip":"75643","city":"Gary","county":"Panola","lat":32.0334,"lng":-94.38},{"zip":"75644","city":"Gilmer","county":"Upshur","lat":32.7246,"lng":-94.9714},{"zip":"75645","city":"Gilmer","county":"Upshur","lat":32.6044,"lng":-94.8491},{"zip":"75647","city":"Gladewater","county":"Gregg","lat":32.5559,"lng":-94.932},{"zip":"75650","city":"Hallsville","county":"Harrison","lat":32.5073,"lng":-94.5333},{"zip":"75651","city":"Harleton","county":"Harrison","lat":32.6579,"lng":-94.4652},{"zip":"75652","city":"Henderson","county":"Rusk","lat":32.2131,"lng":-94.7834},{"zip":"75653","city":"Henderson","county":"Rusk","lat":32.1532,"lng":-94.7994},{"zip":"75654","city":"Henderson","county":"Rusk","lat":32.126,"lng":-94.7488},{"zip":"75656","city":"Hughes Springs","county":"Cass","lat":33.0168,"lng":-94.6228},{"zip":"75657","city":"Jefferson","county":"Marion","lat":32.8059,"lng":-94.3655},{"zip":"75658","city":"Joinerville","county":"Rusk","lat":32.1959,"lng":-94.9065},{"zip":"75659","city":"Jonesville","county":"Harrison","lat":32.5075,"lng":-94.1106},{"zip":"75660","city":"Judson","county":"Gregg","lat":32.5826,"lng":-94.7535},{"zip":"75661","city":"Karnack","county":"Harrison","lat":32.6205,"lng":-94.2001},{"zip":"75662","city":"Kilgore","county":"Gregg","lat":32.3836,"lng":-94.8653},{"zip":"75663","city":"Kilgore","county":"Gregg","lat":32.387,"lng":-94.8951},{"zip":"75666","city":"Laird Hill","county":"Rusk","lat":32.3532,"lng":-94.9055},{"zip":"75667","city":"Laneville","county":"Rusk","lat":31.9508,"lng":-94.866},{"zip":"75668","city":"Lone Star","county":"Morris","lat":32.9252,"lng":-94.7049},{"zip":"75669","city":"Long Branch","county":"Panola","lat":32.0449,"lng":-94.5381},{"zip":"75670","city":"Marshall","county":"Harrison","lat":32.5338,"lng":-94.3619},{"zip":"75671","city":"Marshall","county":"Harrison","lat":32.5449,"lng":-94.3674},{"zip":"75672","city":"Marshall","county":"Harrison","lat":32.5165,"lng":-94.3251},{"zip":"75680","city":"Minden","county":"Rusk","lat":32.0028,"lng":-94.7129},{"zip":"75681","city":"Mount Enterprise","county":"Rusk","lat":31.9125,"lng":-94.6235},{"zip":"75682","city":"New London","county":"Rusk","lat":32.2542,"lng":-94.9322},{"zip":"75683","city":"Ore City","county":"Upshur","lat":32.7856,"lng":-94.7514},{"zip":"75684","city":"Overton","county":"Rusk","lat":32.269,"lng":-94.9529},{"zip":"75685","city":"Panola","county":"Panola","lat":32.3579,"lng":-94.0913},{"zip":"75686","city":"Pittsburg","county":"Camp","lat":32.9623,"lng":-94.9603},{"zip":"75687","city":"Price","county":"Rusk","lat":32.1518,"lng":-94.9554},{"zip":"75688","city":"Scottsville","county":"Harrison","lat":32.554,"lng":-94.2394},{"zip":"75689","city":"Selman City","county":"Rusk","lat":32.1826,"lng":-94.9355},{"zip":"75691","city":"Tatum","county":"Rusk","lat":32.3266,"lng":-94.596},{"zip":"75692","city":"Waskom","county":"Harrison","lat":32.5184,"lng":-94.1355},{"zip":"75693","city":"White Oak","county":"Gregg","lat":32.5383,"lng":-94.8622},{"zip":"75694","city":"Woodlawn","county":"Harrison","lat":32.6537,"lng":-94.3427},{"zip":"75701","city":"Tyler","county":"Smith","lat":32.3254,"lng":-95.2922},{"zip":"75702","city":"Tyler","county":"Smith","lat":32.362,"lng":-95.3117},{"zip":"75703","city":"Tyler","county":"Smith","lat":32.2768,"lng":-95.3031},{"zip":"75704","city":"Tyler","county":"Smith","lat":32.3738,"lng":-95.407},{"zip":"75705","city":"Tyler","county":"Smith","lat":32.3766,"lng":-95.1252},{"zip":"75706","city":"Tyler","county":"Smith","lat":32.4441,"lng":-95.331},{"zip":"75707","city":"Tyler","county":"Smith","lat":32.3038,"lng":-95.1927},{"zip":"75708","city":"Tyler","county":"Smith","lat":32.419,"lng":-95.2106},{"zip":"75709","city":"Tyler","county":"Smith","lat":32.3078,"lng":-95.3956},{"zip":"75710","city":"Tyler","county":"Smith","lat":32.3475,"lng":-95.3065},{"zip":"75711","city":"Tyler","county":"Smith","lat":32.3513,"lng":-95.3011},{"zip":"75712","city":"Tyler","county":"Smith","lat":32.4112,"lng":-95.2899},{"zip":"75713","city":"Tyler","county":"Smith","lat":32.4112,"lng":-95.2899},{"zip":"75750","city":"Arp","county":"Smith","lat":32.2418,"lng":-95.0639},{"zip":"75751","city":"Athens","county":"Henderson","lat":32.1935,"lng":-95.8432},{"zip":"75752","city":"Athens","county":"Henderson","lat":32.2151,"lng":-95.79},{"zip":"75754","city":"Ben Wheeler","county":"Van Zandt","lat":32.4126,"lng":-95.6371},{"zip":"75755","city":"Big Sandy","county":"Upshur","lat":32.6168,"lng":-95.088},{"zip":"75756","city":"Brownsboro","county":"Henderson","lat":32.304,"lng":-95.6},{"zip":"75757","city":"Bullard","county":"Smith","lat":32.1095,"lng":-95.3342},{"zip":"75758","city":"Chandler","county":"Henderson","lat":32.2572,"lng":-95.5393},{"zip":"75759","city":"Cuney","county":"Cherokee","lat":32.0415,"lng":-95.42},{"zip":"75760","city":"Cushing","county":"Nacogdoches","lat":31.7978,"lng":-94.8539},{"zip":"75762","city":"Flint","county":"Smith","lat":32.2079,"lng":-95.3948},{"zip":"75763","city":"Frankston","county":"Anderson","lat":32.0535,"lng":-95.5163},{"zip":"75764","city":"Gallatin","county":"Cherokee","lat":31.891,"lng":-95.1455},{"zip":"75765","city":"Hawkins","county":"Wood","lat":32.6439,"lng":-95.222},{"zip":"75766","city":"Jacksonville","county":"Cherokee","lat":31.9618,"lng":-95.2703},{"zip":"75770","city":"Larue","county":"Henderson","lat":32.1608,"lng":-95.5927},{"zip":"75771","city":"Lindale","county":"Smith","lat":32.5062,"lng":-95.4006},{"zip":"75772","city":"Maydelle","county":"Cherokee","lat":31.8008,"lng":-95.3001},{"zip":"75773","city":"Mineola","county":"Wood","lat":32.6661,"lng":-95.487},{"zip":"75778","city":"Murchison","county":"Henderson","lat":32.3257,"lng":-95.7737},{"zip":"75779","city":"Neches","county":"Anderson","lat":31.8668,"lng":-95.4958},{"zip":"75780","city":"New Summerfield","county":"Cherokee","lat":31.9807,"lng":-95.0938},{"zip":"75782","city":"Poynor","county":"Henderson","lat":32.0797,"lng":-95.5938},{"zip":"75783","city":"Quitman","county":"Wood","lat":32.8049,"lng":-95.4302},{"zip":"75784","city":"Reklaw","county":"Cherokee","lat":31.8859,"lng":-95.0118},{"zip":"75785","city":"Rusk","county":"Cherokee","lat":31.8136,"lng":-95.0965},{"zip":"75788","city":"Sacul","county":"Nacogdoches","lat":31.8254,"lng":-94.9189},{"zip":"75789","city":"Troup","county":"Smith","lat":32.1117,"lng":-95.1155},{"zip":"75790","city":"Van","county":"Van Zandt","lat":32.5283,"lng":-95.6545},{"zip":"75791","city":"Whitehouse","county":"Smith","lat":32.222,"lng":-95.2266},{"zip":"75792","city":"Winona","county":"Smith","lat":32.4662,"lng":-95.1246},{"zip":"75797","city":"Big Sandy","county":"Upshur","lat":32.5765,"lng":-95.1313},{"zip":"75798","city":"Tyler","county":"Smith","lat":32.4112,"lng":-95.2899},{"zip":"75799","city":"Tyler","county":"Smith","lat":32.4112,"lng":-95.2899},{"zip":"75801","city":"Palestine","county":"Anderson","lat":31.7588,"lng":-95.6342},{"zip":"75802","city":"Palestine","county":"Anderson","lat":31.7621,"lng":-95.6308},{"zip":"75803","city":"Palestine","county":"Anderson","lat":31.7571,"lng":-95.6545},{"zip":"75831","city":"Buffalo","county":"Leon","lat":31.4121,"lng":-95.9904},{"zip":"75832","city":"Cayuga","county":"Anderson","lat":31.9571,"lng":-95.9747},{"zip":"75833","city":"Centerville","county":"Leon","lat":31.272,"lng":-95.9213},{"zip":"75834","city":"Centralia","county":"Trinity","lat":31.258,"lng":-95.0399},{"zip":"75835","city":"Crockett","county":"Houston","lat":31.3208,"lng":-95.3928},{"zip":"75838","city":"Donie","county":"Freestone","lat":31.4873,"lng":-96.2387},{"zip":"75839","city":"Elkhart","county":"Anderson","lat":31.648,"lng":-95.5551},{"zip":"75840","city":"Fairfield","county":"Freestone","lat":31.7361,"lng":-96.1572},{"zip":"75844","city":"Grapeland","county":"Houston","lat":31.4972,"lng":-95.4447},{"zip":"75845","city":"Groveton","county":"Trinity","lat":31.0651,"lng":-95.0969},{"zip":"75846","city":"Jewett","county":"Leon","lat":31.3739,"lng":-96.1918},{"zip":"75847","city":"Kennard","county":"Houston","lat":31.3384,"lng":-95.1541},{"zip":"75848","city":"Kirvin","county":"Freestone","lat":31.7666,"lng":-96.3303},{"zip":"75849","city":"Latexo","county":"Houston","lat":31.3952,"lng":-95.4741},{"zip":"75850","city":"Leona","county":"Leon","lat":31.1421,"lng":-95.9284},{"zip":"75851","city":"Lovelady","county":"Houston","lat":31.0564,"lng":-95.5501},{"zip":"75852","city":"Midway","county":"Madison","lat":30.9806,"lng":-95.7089},{"zip":"75853","city":"Montalba","county":"Anderson","lat":31.8766,"lng":-95.7327},{"zip":"75855","city":"Oakwood","county":"Leon","lat":31.5849,"lng":-95.8491},{"zip":"75856","city":"Pennington","county":"Trinity","lat":31.1953,"lng":-95.2469},{"zip":"75858","city":"Ratcliff","county":"Houston","lat":31.3916,"lng":-95.1397},{"zip":"75859","city":"Streetman","county":"Freestone","lat":31.8885,"lng":-96.2988},{"zip":"75860","city":"Teague","county":"Freestone","lat":31.6328,"lng":-96.2778},{"zip":"75861","city":"Tennessee Colony","county":"Anderson","lat":31.7929,"lng":-95.8998},{"zip":"75862","city":"Trinity","county":"Trinity","lat":30.942,"lng":-95.3403},{"zip":"75865","city":"Woodlake","county":"Trinity","lat":31.0288,"lng":-95.033},{"zip":"75880","city":"Tennessee Colony","county":"Anderson","lat":31.8354,"lng":-95.8389},{"zip":"75882","city":"Palestine","county":"Anderson","lat":31.7942,"lng":-95.662},{"zip":"75884","city":"Tennessee Colony","county":"Anderson","lat":31.8354,"lng":-95.8389},{"zip":"75886","city":"Tennessee Colony","county":"Anderson","lat":31.8354,"lng":-95.8389},{"zip":"75901","city":"Lufkin","county":"Angelina","lat":31.27,"lng":-94.6469},{"zip":"75902","city":"Lufkin","county":"Angelina","lat":31.3623,"lng":-94.7611},{"zip":"75903","city":"Lufkin","county":"Angelina","lat":31.2766,"lng":-94.5676},{"zip":"75904","city":"Lufkin","county":"Angelina","lat":31.3489,"lng":-94.8327},{"zip":"75915","city":"Lufkin","county":"Angelina","lat":31.3382,"lng":-94.7291},{"zip":"75925","city":"Alto","county":"Cherokee","lat":31.6103,"lng":-95.0762},{"zip":"75926","city":"Apple Springs","county":"Trinity","lat":31.2269,"lng":-94.9812},{"zip":"75928","city":"Bon Wier","county":"Newton","lat":30.6876,"lng":-93.7665},{"zip":"75929","city":"Broaddus","county":"San Augustine","lat":31.2952,"lng":-94.2156},{"zip":"75930","city":"Bronson","county":"Sabine","lat":31.3391,"lng":-93.9993},{"zip":"75931","city":"Brookeland","county":"Sabine","lat":31.0922,"lng":-93.9684},{"zip":"75932","city":"Burkeville","county":"Newton","lat":31.0099,"lng":-93.6585},{"zip":"75933","city":"Call","county":"Newton","lat":30.5741,"lng":-93.8334},{"zip":"75934","city":"Camden","county":"Polk","lat":30.9,"lng":-94.7547},{"zip":"75935","city":"Center","county":"Shelby","lat":31.7865,"lng":-94.1869},{"zip":"75936","city":"Chester","county":"Tyler","lat":30.9447,"lng":-94.5554},{"zip":"75937","city":"Chireno","county":"Nacogdoches","lat":31.5119,"lng":-94.4302},{"zip":"75938","city":"Colmesneil","county":"Tyler","lat":30.9007,"lng":-94.3916},{"zip":"75939","city":"Corrigan","county":"Polk","lat":31.0408,"lng":-94.8124},{"zip":"75941","city":"Diboll","county":"Angelina","lat":31.195,"lng":-94.7729},{"zip":"75942","city":"Doucette","county":"Tyler","lat":30.8183,"lng":-94.4288},{"zip":"75943","city":"Douglass","county":"Nacogdoches","lat":31.6578,"lng":-94.8696},{"zip":"75944","city":"Etoile","county":"Nacogdoches","lat":31.3601,"lng":-94.4064},{"zip":"75946","city":"Garrison","county":"Nacogdoches","lat":31.8111,"lng":-94.5266},{"zip":"75948","city":"Hemphill","county":"Sabine","lat":31.3161,"lng":-93.7905},{"zip":"75949","city":"Huntington","county":"Angelina","lat":31.2837,"lng":-94.5662},{"zip":"75951","city":"Jasper","county":"Jasper","lat":30.8673,"lng":-93.9977},{"zip":"75954","city":"Joaquin","county":"Shelby","lat":31.944,"lng":-94.0608},{"zip":"75956","city":"Kirbyville","county":"Jasper","lat":30.6583,"lng":-93.8984},{"zip":"75958","city":"Martinsville","county":"Nacogdoches","lat":31.6427,"lng":-94.4141},{"zip":"75959","city":"Milam","county":"Sabine","lat":31.4324,"lng":-93.8457},{"zip":"75960","city":"Moscow","county":"Polk","lat":30.9179,"lng":-94.8544},{"zip":"75961","city":"Nacogdoches","county":"Nacogdoches","lat":31.5611,"lng":-94.5},{"zip":"75962","city":"Nacogdoches","county":"Nacogdoches","lat":31.6995,"lng":-94.6074},{"zip":"75963","city":"Nacogdoches","county":"Nacogdoches","lat":31.6046,"lng":-94.6641},{"zip":"75964","city":"Nacogdoches","county":"Nacogdoches","lat":31.6737,"lng":-94.6932},{"zip":"75965","city":"Nacogdoches","county":"Nacogdoches","lat":31.7195,"lng":-94.6168},{"zip":"75966","city":"Newton","county":"Newton","lat":30.8351,"lng":-93.7497},{"zip":"75968","city":"Pineland","county":"Sabine","lat":31.2418,"lng":-93.9754},{"zip":"75969","city":"Pollok","county":"Angelina","lat":31.4291,"lng":-94.8254},{"zip":"75972","city":"San Augustine","county":"San Augustine","lat":31.5152,"lng":-94.1326},{"zip":"75973","city":"Shelbyville","county":"Shelby","lat":31.7131,"lng":-93.9698},{"zip":"75974","city":"Tenaha","county":"Shelby","lat":31.9408,"lng":-94.2488},{"zip":"75975","city":"Timpson","county":"Shelby","lat":31.8841,"lng":-94.3967},{"zip":"75976","city":"Wells","county":"Cherokee","lat":31.4885,"lng":-94.9399},{"zip":"75977","city":"Wiergate","county":"Newton","lat":31.0414,"lng":-93.8039},{"zip":"75978","city":"Woden","county":"Nacogdoches","lat":31.5037,"lng":-94.525},{"zip":"75979","city":"Woodville","county":"Tyler","lat":30.7752,"lng":-94.4155},{"zip":"75980","city":"Zavalla","county":"Angelina","lat":31.1569,"lng":-94.3871},{"zip":"75990","city":"Woodville","county":"Tyler","lat":30.7752,"lng":-94.4155},{"zip":"76001","city":"Arlington","county":"Tarrant","lat":32.6289,"lng":-97.1517},{"zip":"76002","city":"Arlington","county":"Tarrant","lat":32.6255,"lng":-97.0784},{"zip":"76003","city":"Arlington","county":"Tarrant","lat":32.7417,"lng":-97.2253},{"zip":"76004","city":"Arlington","county":"Tarrant","lat":32.7357,"lng":-97.1081},{"zip":"76005","city":"Arlington","county":"Tarrant","lat":32.7714,"lng":-97.2915},{"zip":"76006","city":"Arlington","county":"Tarrant","lat":32.7785,"lng":-97.0834},{"zip":"76007","city":"Arlington","county":"Tarrant","lat":32.7714,"lng":-97.2915},{"zip":"76008","city":"Aledo","county":"Parker","lat":32.7004,"lng":-97.6039},{"zip":"76009","city":"Alvarado","county":"Johnson","lat":32.4395,"lng":-97.213},{"zip":"76010","city":"Arlington","county":"Tarrant","lat":32.7204,"lng":-97.0826},{"zip":"76011","city":"Arlington","county":"Tarrant","lat":32.7582,"lng":-97.1003},{"zip":"76012","city":"Arlington","county":"Tarrant","lat":32.754,"lng":-97.1348},{"zip":"76013","city":"Arlington","county":"Tarrant","lat":32.7199,"lng":-97.1442},{"zip":"76014","city":"Arlington","county":"Tarrant","lat":32.6954,"lng":-97.0876},{"zip":"76015","city":"Arlington","county":"Tarrant","lat":32.6931,"lng":-97.1347},{"zip":"76016","city":"Arlington","county":"Tarrant","lat":32.6889,"lng":-97.1905},{"zip":"76017","city":"Arlington","county":"Tarrant","lat":32.6555,"lng":-97.1599},{"zip":"76018","city":"Arlington","county":"Tarrant","lat":32.6548,"lng":-97.092},{"zip":"76019","city":"Arlington","county":"Tarrant","lat":32.7357,"lng":-97.1081},{"zip":"76020","city":"Azle","county":"Tarrant","lat":32.9035,"lng":-97.5412},{"zip":"76021","city":"Bedford","county":"Tarrant","lat":32.8536,"lng":-97.1358},{"zip":"76022","city":"Bedford","county":"Tarrant","lat":32.8297,"lng":-97.1454},{"zip":"76023","city":"Boyd","county":"Wise","lat":33.0594,"lng":-97.5868},{"zip":"76028","city":"Burleson","county":"Johnson","lat":32.5316,"lng":-97.309},{"zip":"76031","city":"Cleburne","county":"Johnson","lat":32.3485,"lng":-97.3311},{"zip":"76033","city":"Cleburne","county":"Johnson","lat":32.3509,"lng":-97.4103},{"zip":"76034","city":"Colleyville","county":"Tarrant","lat":32.8872,"lng":-97.146},{"zip":"76035","city":"Cresson","county":"Hood","lat":32.5343,"lng":-97.6158},{"zip":"76036","city":"Crowley","county":"Tarrant","lat":32.5814,"lng":-97.3703},{"zip":"76039","city":"Euless","county":"Tarrant","lat":32.8582,"lng":-97.0832},{"zip":"76040","city":"Euless","county":"Tarrant","lat":32.8264,"lng":-97.0972},{"zip":"76041","city":"Forreston","county":"Ellis","lat":32.2486,"lng":-96.8232},{"zip":"76043","city":"Glen Rose","county":"Somervell","lat":32.2298,"lng":-97.7629},{"zip":"76044","city":"Godley","county":"Johnson","lat":32.4282,"lng":-97.5349},{"zip":"76048","city":"Granbury","county":"Hood","lat":32.425,"lng":-97.7742},{"zip":"76049","city":"Granbury","county":"Hood","lat":32.4488,"lng":-97.7285},{"zip":"76050","city":"Grandview","county":"Johnson","lat":32.2704,"lng":-97.1792},{"zip":"76051","city":"Grapevine","county":"Tarrant","lat":32.9328,"lng":-97.0808},{"zip":"76052","city":"Haslet","county":"Tarrant","lat":32.9557,"lng":-97.3372},{"zip":"76053","city":"Hurst","county":"Tarrant","lat":32.8211,"lng":-97.1756},{"zip":"76054","city":"Hurst","county":"Tarrant","lat":32.8558,"lng":-97.1755},{"zip":"76055","city":"Itasca","county":"Hill","lat":32.1636,"lng":-97.146},{"zip":"76058","city":"Joshua","county":"Johnson","lat":32.4663,"lng":-97.4011},{"zip":"76059","city":"Keene","county":"Johnson","lat":32.3937,"lng":-97.3287},{"zip":"76060","city":"Kennedale","county":"Tarrant","lat":32.6432,"lng":-97.2139},{"zip":"76061","city":"Lillian","county":"Johnson","lat":32.5065,"lng":-97.1875},{"zip":"76063","city":"Mansfield","county":"Tarrant","lat":32.5773,"lng":-97.1416},{"zip":"76064","city":"Maypearl","county":"Ellis","lat":32.2993,"lng":-97.0271},{"zip":"76065","city":"Midlothian","county":"Ellis","lat":32.4757,"lng":-96.9936},{"zip":"76066","city":"Millsap","county":"Parker","lat":32.7457,"lng":-97.9561},{"zip":"76067","city":"Mineral Wells","county":"Palo Pinto","lat":32.8085,"lng":-98.1128},{"zip":"76068","city":"Mineral Wells","county":"Palo Pinto","lat":32.8085,"lng":-98.1128},{"zip":"76070","city":"Nemo","county":"Somervell","lat":32.2713,"lng":-97.6567},{"zip":"76071","city":"Newark","county":"Wise","lat":33.007,"lng":-97.4923},{"zip":"76073","city":"Paradise","county":"Wise","lat":33.0826,"lng":-97.6974},{"zip":"76077","city":"Rainbow","county":"Somervell","lat":32.2812,"lng":-97.7065},{"zip":"76078","city":"Rhome","county":"Wise","lat":33.054,"lng":-97.4817},{"zip":"76082","city":"Springtown","county":"Parker","lat":32.966,"lng":-97.6836},{"zip":"76084","city":"Venus","county":"Johnson","lat":32.433,"lng":-97.1087},{"zip":"76085","city":"Weatherford","county":"Parker","lat":32.7676,"lng":-97.7516},{"zip":"76086","city":"Weatherford","county":"Parker","lat":32.7549,"lng":-97.7899},{"zip":"76087","city":"Weatherford","county":"Parker","lat":32.7495,"lng":-97.6894},{"zip":"76088","city":"Weatherford","county":"Parker","lat":32.8478,"lng":-97.8606},{"zip":"76092","city":"Southlake","county":"Tarrant","lat":32.9485,"lng":-97.1524},{"zip":"76093","city":"Rio Vista","county":"Johnson","lat":32.2532,"lng":-97.3678},{"zip":"76094","city":"Arlington","county":"Tarrant","lat":32.7714,"lng":-97.2915},{"zip":"76095","city":"Bedford","county":"Tarrant","lat":32.844,"lng":-97.1431},{"zip":"76096","city":"Arlington","county":"Tarrant","lat":32.7714,"lng":-97.2915},{"zip":"76097","city":"Burleson","county":"Johnson","lat":32.5421,"lng":-97.3208},{"zip":"76098","city":"Azle","county":"Parker","lat":32.8957,"lng":-97.5636},{"zip":"76099","city":"Grapevine","county":"Tarrant","lat":32.9343,"lng":-97.0781},{"zip":"76101","city":"Fort Worth","county":"Tarrant","lat":32.7714,"lng":-97.2915},{"zip":"76102","city":"Fort Worth","county":"Tarrant","lat":32.7589,"lng":-97.328},{"zip":"76103","city":"Fort Worth","county":"Tarrant","lat":32.747,"lng":-97.2604},{"zip":"76104","city":"Fort Worth","county":"Tarrant","lat":32.7256,"lng":-97.3184},{"zip":"76105","city":"Fort Worth","county":"Tarrant","lat":32.7233,"lng":-97.269},{"zip":"76106","city":"Fort Worth","county":"Tarrant","lat":32.7968,"lng":-97.356},{"zip":"76107","city":"Fort Worth","county":"Tarrant","lat":32.7392,"lng":-97.3852},{"zip":"76108","city":"Fort Worth","county":"Tarrant","lat":32.7822,"lng":-97.4969},{"zip":"76109","city":"Fort Worth","county":"Tarrant","lat":32.7002,"lng":-97.3789},{"zip":"76110","city":"Fort Worth","county":"Tarrant","lat":32.7065,"lng":-97.3375},{"zip":"76111","city":"Fort Worth","county":"Tarrant","lat":32.7824,"lng":-97.3003},{"zip":"76112","city":"Fort Worth","county":"Tarrant","lat":32.7493,"lng":-97.2181},{"zip":"76113","city":"Fort Worth","county":"Tarrant","lat":32.7714,"lng":-97.2915},{"zip":"76114","city":"Fort Worth","county":"Tarrant","lat":32.7796,"lng":-97.3928},{"zip":"76115","city":"Fort Worth","county":"Tarrant","lat":32.6796,"lng":-97.3336},{"zip":"76116","city":"Fort Worth","county":"Tarrant","lat":32.723,"lng":-97.4483},{"zip":"76117","city":"Haltom City","county":"Tarrant","lat":32.8087,"lng":-97.2709},{"zip":"76118","city":"Fort Worth","county":"Tarrant","lat":32.8013,"lng":-97.1952},{"zip":"76119","city":"Fort Worth","county":"Tarrant","lat":32.6914,"lng":-97.2675},{"zip":"76120","city":"Fort Worth","county":"Tarrant","lat":32.7639,"lng":-97.1781},{"zip":"76121","city":"Fort Worth","county":"Tarrant","lat":32.7714,"lng":-97.2915},{"zip":"76122","city":"Fort Worth","county":"Tarrant","lat":32.7714,"lng":-97.2915},{"zip":"76123","city":"Fort Worth","county":"Tarrant","lat":32.6254,"lng":-97.3658},{"zip":"76124","city":"Fort Worth","county":"Tarrant","lat":32.7714,"lng":-97.2915},{"zip":"76126","city":"Fort Worth","county":"Tarrant","lat":32.64,"lng":-97.5448},{"zip":"76127","city":"Naval Air Station Jrb","county":"Tarrant","lat":32.7254,"lng":-97.3208},{"zip":"76129","city":"Fort Worth","county":"Tarrant","lat":32.7714,"lng":-97.2915},{"zip":"76130","city":"Fort Worth","county":"Tarrant","lat":32.7714,"lng":-97.2915},{"zip":"76131","city":"Fort Worth","county":"Tarrant","lat":32.8632,"lng":-97.3377},{"zip":"76132","city":"Fort Worth","county":"Tarrant","lat":32.6711,"lng":-97.4056},{"zip":"76133","city":"Fort Worth","county":"Tarrant","lat":32.6526,"lng":-97.3758},{"zip":"76134","city":"Fort Worth","county":"Tarrant","lat":32.6469,"lng":-97.3325},{"zip":"76135","city":"Fort Worth","county":"Tarrant","lat":32.8248,"lng":-97.4519},{"zip":"76136","city":"Fort Worth","county":"Tarrant","lat":32.7714,"lng":-97.2915},{"zip":"76137","city":"Fort Worth","county":"Tarrant","lat":32.8664,"lng":-97.2891},{"zip":"76140","city":"Fort Worth","county":"Tarrant","lat":32.6192,"lng":-97.2735},{"zip":"76147","city":"Fort Worth","county":"Tarrant","lat":32.7714,"lng":-97.2915},{"zip":"76148","city":"Fort Worth","county":"Tarrant","lat":32.8621,"lng":-97.2508},{"zip":"76150","city":"Fort Worth","county":"Tarrant","lat":32.7714,"lng":-97.2915},{"zip":"76155","city":"Fort Worth","county":"Tarrant","lat":32.8247,"lng":-97.0503},{"zip":"76161","city":"Fort Worth","county":"Tarrant","lat":32.7714,"lng":-97.2915},{"zip":"76162","city":"Fort Worth","county":"Tarrant","lat":32.7714,"lng":-97.2915},{"zip":"76163","city":"Fort Worth","county":"Tarrant","lat":32.7714,"lng":-97.2915},{"zip":"76164","city":"Fort Worth","county":"Tarrant","lat":32.7811,"lng":-97.3546},{"zip":"76166","city":"Fort Worth","county":"Tarrant","lat":32.7539,"lng":-97.3362},{"zip":"76177","city":"Fort Worth","county":"Tarrant","lat":32.9448,"lng":-97.3124},{"zip":"76179","city":"Fort Worth","county":"Tarrant","lat":32.9074,"lng":-97.4257},{"zip":"76180","city":"North Richland Hills","county":"Tarrant","lat":32.84,"lng":-97.225},{"zip":"76181","city":"Fort Worth","county":"Tarrant","lat":32.7714,"lng":-97.2915},{"zip":"76182","city":"North Richland Hills","county":"Tarrant","lat":32.8828,"lng":-97.2098},{"zip":"76185","city":"Fort Worth","county":"Tarrant","lat":32.7714,"lng":-97.2915},{"zip":"76190","city":"Fort Worth","county":"Tarrant","lat":32.7423,"lng":-97.3315},{"zip":"76191","city":"Fort Worth","county":"Tarrant","lat":32.7714,"lng":-97.2915},{"zip":"76192","city":"Fort Worth","county":"Tarrant","lat":32.7714,"lng":-97.2915},{"zip":"76193","city":"Fort Worth","county":"Tarrant","lat":32.7714,"lng":-97.2915},{"zip":"76195","city":"Fort Worth","county":"Tarrant","lat":32.7254,"lng":-97.3208},{"zip":"76196","city":"Fort Worth","county":"Tarrant","lat":32.7714,"lng":-97.2915},{"zip":"76197","city":"Fort Worth","county":"Tarrant","lat":32.7714,"lng":-97.2915},{"zip":"76198","city":"Fort Worth","county":"Tarrant","lat":32.7714,"lng":-97.2915},{"zip":"76199","city":"Fort Worth","county":"Tarrant","lat":32.7714,"lng":-97.2915},{"zip":"76201","city":"Denton","county":"Denton","lat":33.2289,"lng":-97.1314},{"zip":"76202","city":"Denton","county":"Denton","lat":33.2255,"lng":-97.1085},{"zip":"76203","city":"Denton","county":"Denton","lat":33.2148,"lng":-97.1331},{"zip":"76204","city":"Denton","county":"Denton","lat":33.2074,"lng":-97.1163},{"zip":"76205","city":"Denton","county":"Denton","lat":33.1903,"lng":-97.1282},{"zip":"76206","city":"Denton","county":"Denton","lat":33.1694,"lng":-97.1506},{"zip":"76207","city":"Denton","county":"Denton","lat":33.2285,"lng":-97.1813},{"zip":"76208","city":"Denton","county":"Denton","lat":33.2117,"lng":-97.0612},{"zip":"76209","city":"Denton","county":"Denton","lat":33.2346,"lng":-97.1131},{"zip":"76210","city":"Denton","county":"Denton","lat":33.1428,"lng":-97.0727},{"zip":"76225","city":"Alvord","county":"Wise","lat":33.3698,"lng":-97.6885},{"zip":"76226","city":"Argyle","county":"Denton","lat":33.1062,"lng":-97.16},{"zip":"76227","city":"Aubrey","county":"Denton","lat":33.292,"lng":-96.9879},{"zip":"76228","city":"Bellevue","county":"Clay","lat":33.5879,"lng":-98.1574},{"zip":"76230","city":"Bowie","county":"Montague","lat":33.5568,"lng":-97.8373},{"zip":"76233","city":"Collinsville","county":"Grayson","lat":33.558,"lng":-96.9014},{"zip":"76234","city":"Decatur","county":"Wise","lat":33.2351,"lng":-97.574},{"zip":"76238","city":"Era","county":"Cooke","lat":33.4965,"lng":-97.3859},{"zip":"76239","city":"Forestburg","county":"Montague","lat":33.5398,"lng":-97.5848},{"zip":"76240","city":"Gainesville","county":"Cooke","lat":33.6547,"lng":-97.1583},{"zip":"76241","city":"Gainesville","county":"Cooke","lat":33.6104,"lng":-97.0369},{"zip":"76244","city":"Keller","county":"Tarrant","lat":32.931,"lng":-97.2843},{"zip":"76245","city":"Gordonville","county":"Grayson","lat":33.8343,"lng":-96.8403},{"zip":"76246","city":"Greenwood","county":"Wise","lat":33.407,"lng":-97.4716},{"zip":"76247","city":"Justin","county":"Denton","lat":33.0734,"lng":-97.3093},{"zip":"76248","city":"Keller","county":"Tarrant","lat":32.9276,"lng":-97.2489},{"zip":"76249","city":"Krum","county":"Denton","lat":33.2734,"lng":-97.2675},{"zip":"76250","city":"Lindsay","county":"Cooke","lat":33.636,"lng":-97.2214},{"zip":"76251","city":"Montague","county":"Montague","lat":33.6639,"lng":-97.7282},{"zip":"76252","city":"Muenster","county":"Cooke","lat":33.6595,"lng":-97.3624},{"zip":"76253","city":"Myra","county":"Cooke","lat":33.6178,"lng":-97.309},{"zip":"76255","city":"Nocona","county":"Montague","lat":33.7982,"lng":-97.727},{"zip":"76258","city":"Pilot Point","county":"Denton","lat":33.371,"lng":-96.9446},{"zip":"76259","city":"Ponder","county":"Denton","lat":33.1774,"lng":-97.2848},{"zip":"76261","city":"Ringgold","county":"Montague","lat":33.8164,"lng":-97.944},{"zip":"76262","city":"Roanoke","county":"Denton","lat":33.0211,"lng":-97.2127},{"zip":"76263","city":"Rosston","county":"Cooke","lat":33.4674,"lng":-97.4534},{"zip":"76264","city":"Sadler","county":"Grayson","lat":33.731,"lng":-96.84},{"zip":"76265","city":"Saint Jo","county":"Montague","lat":33.744,"lng":-97.5568},{"zip":"76266","city":"Sanger","county":"Denton","lat":33.3563,"lng":-97.1814},{"zip":"76267","city":"Slidell","county":"Wise","lat":33.378,"lng":-97.3922},{"zip":"76268","city":"Southmayd","county":"Grayson","lat":33.6304,"lng":-96.7692},{"zip":"76270","city":"Sunset","county":"Montague","lat":33.4539,"lng":-97.7709},{"zip":"76271","city":"Tioga","county":"Grayson","lat":33.4675,"lng":-96.9097},{"zip":"76272","city":"Valley View","county":"Cooke","lat":33.5022,"lng":-97.2311},{"zip":"76273","city":"Whitesboro","county":"Grayson","lat":33.659,"lng":-96.879},{"zip":"76301","city":"Wichita Falls","county":"Wichita","lat":33.9053,"lng":-98.4976},{"zip":"76302","city":"Wichita Falls","county":"Wichita","lat":33.8643,"lng":-98.494},{"zip":"76305","city":"Wichita Falls","county":"Wichita","lat":33.9995,"lng":-98.3938},{"zip":"76306","city":"Wichita Falls","county":"Wichita","lat":33.9519,"lng":-98.5145},{"zip":"76307","city":"Wichita Falls","county":"Wichita","lat":33.9137,"lng":-98.4934},{"zip":"76308","city":"Wichita Falls","county":"Wichita","lat":33.8633,"lng":-98.534},{"zip":"76309","city":"Wichita Falls","county":"Wichita","lat":33.8931,"lng":-98.5343},{"zip":"76310","city":"Wichita Falls","county":"Wichita","lat":33.8581,"lng":-98.5755},{"zip":"76311","city":"Sheppard Afb","county":"Wichita","lat":33.9824,"lng":-98.5088},{"zip":"76351","city":"Archer City","county":"Archer","lat":33.5562,"lng":-98.6249},{"zip":"76352","city":"Bluegrove","county":"Clay","lat":33.674,"lng":-98.23},{"zip":"76354","city":"Burkburnett","county":"Wichita","lat":34.086,"lng":-98.5708},{"zip":"76357","city":"Byers","county":"Clay","lat":34.0728,"lng":-98.1839},{"zip":"76360","city":"Electra","county":"Wichita","lat":34.0362,"lng":-98.9155},{"zip":"76363","city":"Goree","county":"Knox","lat":33.4748,"lng":-99.5258},{"zip":"76364","city":"Harrold","county":"Wilbarger","lat":34.0806,"lng":-99.0323},{"zip":"76365","city":"Henrietta","county":"Clay","lat":33.8196,"lng":-98.26},{"zip":"76366","city":"Holliday","county":"Archer","lat":33.8162,"lng":-98.6951},{"zip":"76367","city":"Iowa Park","county":"Wichita","lat":33.9423,"lng":-98.6745},{"zip":"76369","city":"Kamay","county":"Wichita","lat":33.8579,"lng":-98.8081},{"zip":"76370","city":"Megargel","county":"Archer","lat":33.4533,"lng":-98.9297},{"zip":"76371","city":"Munday","county":"Knox","lat":33.4561,"lng":-99.6326},{"zip":"76372","city":"Newcastle","county":"Young","lat":33.1901,"lng":-98.7446},{"zip":"76373","city":"Oklaunion","county":"Wilbarger","lat":34.1295,"lng":-99.1429},{"zip":"76374","city":"Olney","county":"Young","lat":33.3601,"lng":-98.7427},{"zip":"76377","city":"Petrolia","county":"Clay","lat":34.0132,"lng":-98.2323},{"zip":"76379","city":"Scotland","county":"Archer","lat":33.6535,"lng":-98.465},{"zip":"76380","city":"Seymour","county":"Baylor","lat":33.5914,"lng":-99.2587},{"zip":"76384","city":"Vernon","county":"Wilbarger","lat":34.1491,"lng":-99.303},{"zip":"76385","city":"Vernon","county":"Wilbarger","lat":34.1554,"lng":-99.2663},{"zip":"76388","city":"Weinert","county":"Haskell","lat":33.3249,"lng":-99.6664},{"zip":"76389","city":"Windthorst","county":"Archer","lat":33.5796,"lng":-98.4376},{"zip":"76401","city":"Stephenville","county":"Erath","lat":32.2214,"lng":-98.2224},{"zip":"76402","city":"Stephenville","county":"Erath","lat":32.2153,"lng":-98.208},{"zip":"76424","city":"Breckenridge","county":"Stephens","lat":32.7532,"lng":-98.9099},{"zip":"76426","city":"Bridgeport","county":"Wise","lat":33.187,"lng":-97.781},{"zip":"76427","city":"Bryson","county":"Jack","lat":33.1615,"lng":-98.3874},{"zip":"76429","city":"Caddo","county":"Stephens","lat":32.6886,"lng":-98.659},{"zip":"76430","city":"Albany","county":"Shackelford","lat":32.719,"lng":-99.3196},{"zip":"76431","city":"Chico","county":"Wise","lat":33.3193,"lng":-97.8031},{"zip":"76432","city":"Blanket","county":"Brown","lat":31.7882,"lng":-98.8311},{"zip":"76433","city":"Bluff Dale","county":"Erath","lat":32.2884,"lng":-98.0539},{"zip":"76435","city":"Carbon","county":"Eastland","lat":32.2701,"lng":-98.8348},{"zip":"76436","city":"Carlton","county":"Hamilton","lat":31.8949,"lng":-98.1842},{"zip":"76437","city":"Cisco","county":"Eastland","lat":32.38,"lng":-98.9865},{"zip":"76439","city":"Dennis","county":"Parker","lat":32.6187,"lng":-97.9267},{"zip":"76442","city":"Comanche","county":"Comanche","lat":31.9116,"lng":-98.6082},{"zip":"76443","city":"Cross Plains","county":"Callahan","lat":32.1482,"lng":-99.1872},{"zip":"76444","city":"De Leon","county":"Comanche","lat":32.1087,"lng":-98.5489},{"zip":"76445","city":"Desdemona","county":"Eastland","lat":32.2819,"lng":-98.5673},{"zip":"76446","city":"Dublin","county":"Erath","lat":32.0909,"lng":-98.3455},{"zip":"76448","city":"Eastland","county":"Eastland","lat":32.3994,"lng":-98.8071},{"zip":"76449","city":"Graford","county":"Palo Pinto","lat":32.9242,"lng":-98.337},{"zip":"76450","city":"Graham","county":"Young","lat":33.0993,"lng":-98.5832},{"zip":"76452","city":"Energy","county":"Comanche","lat":31.7629,"lng":-98.3695},{"zip":"76453","city":"Gordon","county":"Palo Pinto","lat":32.5478,"lng":-98.3632},{"zip":"76454","city":"Gorman","county":"Eastland","lat":32.2234,"lng":-98.6834},{"zip":"76455","city":"Gustine","county":"Comanche","lat":31.8468,"lng":-98.4017},{"zip":"76457","city":"Hico","county":"Hamilton","lat":31.9597,"lng":-98.0249},{"zip":"76458","city":"Jacksboro","county":"Jack","lat":33.2347,"lng":-98.1681},{"zip":"76459","city":"Jermyn","county":"Jack","lat":33.2636,"lng":-98.3931},{"zip":"76460","city":"Loving","county":"Young","lat":33.2689,"lng":-98.5024},{"zip":"76461","city":"Lingleville","county":"Erath","lat":32.2446,"lng":-98.3775},{"zip":"76462","city":"Lipan","county":"Hood","lat":32.5072,"lng":-97.9536},{"zip":"76463","city":"Mingus","county":"Palo Pinto","lat":32.5381,"lng":-98.4219},{"zip":"76464","city":"Moran","county":"Shackelford","lat":32.5549,"lng":-99.1656},{"zip":"76465","city":"Morgan Mill","county":"Erath","lat":32.3882,"lng":-98.1673},{"zip":"76466","city":"Olden","county":"Eastland","lat":32.4421,"lng":-98.7342},{"zip":"76467","city":"Paluxy","county":"Hood","lat":32.2707,"lng":-97.9075},{"zip":"76468","city":"Proctor","county":"Comanche","lat":31.9874,"lng":-98.4298},{"zip":"76469","city":"Putnam","county":"Callahan","lat":32.374,"lng":-99.1957},{"zip":"76470","city":"Ranger","county":"Eastland","lat":32.4681,"lng":-98.6747},{"zip":"76471","city":"Rising Star","county":"Eastland","lat":32.128,"lng":-98.9859},{"zip":"76472","city":"Santo","county":"Palo Pinto","lat":32.5979,"lng":-98.1797},{"zip":"76474","city":"Sidney","county":"Comanche","lat":31.932,"lng":-98.768},{"zip":"76475","city":"Strawn","county":"Palo Pinto","lat":32.5945,"lng":-98.4995},{"zip":"76476","city":"Tolar","county":"Hood","lat":32.3772,"lng":-97.8802},{"zip":"76481","city":"South Bend","county":"Young","lat":33.0052,"lng":-98.6892},{"zip":"76483","city":"Throckmorton","county":"Throckmorton","lat":33.1794,"lng":-99.1838},{"zip":"76484","city":"Palo Pinto","county":"Palo Pinto","lat":32.7673,"lng":-98.2987},{"zip":"76485","city":"Peaster","county":"Parker","lat":32.8721,"lng":-97.8667},{"zip":"76486","city":"Perrin","county":"Jack","lat":33.034,"lng":-98.0692},{"zip":"76487","city":"Poolville","county":"Parker","lat":32.968,"lng":-97.8472},{"zip":"76490","city":"Whitt","county":"Parker","lat":32.9555,"lng":-98.021},{"zip":"76491","city":"Woodson","county":"Throckmorton","lat":33.0741,"lng":-99.0546},{"zip":"76501","city":"Temple","county":"Bell","lat":31.0895,"lng":-97.3343},{"zip":"76502","city":"Temple","county":"Bell","lat":31.071,"lng":-97.3898},{"zip":"76503","city":"Temple","county":"Bell","lat":31.054,"lng":-97.3203},{"zip":"76504","city":"Temple","county":"Bell","lat":31.0917,"lng":-97.3648},{"zip":"76508","city":"Temple","county":"Bell","lat":31.0363,"lng":-97.492},{"zip":"76511","city":"Bartlett","county":"Bell","lat":30.7991,"lng":-97.4263},{"zip":"76513","city":"Belton","county":"Bell","lat":31.0723,"lng":-97.472},{"zip":"76518","city":"Buckholts","county":"Milam","lat":30.8858,"lng":-97.1241},{"zip":"76519","city":"Burlington","county":"Milam","lat":30.9736,"lng":-96.9642},{"zip":"76520","city":"Cameron","county":"Milam","lat":30.8527,"lng":-96.9766},{"zip":"76522","city":"Copperas Cove","county":"Coryell","lat":31.2029,"lng":-97.9301},{"zip":"76523","city":"Davilla","county":"Milam","lat":30.7857,"lng":-97.275},{"zip":"76524","city":"Eddy","county":"McLennan","lat":31.3088,"lng":-97.2774},{"zip":"76525","city":"Evant","county":"Coryell","lat":31.4388,"lng":-98.0535},{"zip":"76526","city":"Flat","county":"Coryell","lat":31.2956,"lng":-97.5822},{"zip":"76527","city":"Florence","county":"Williamson","lat":30.8076,"lng":-97.7812},{"zip":"76528","city":"Gatesville","county":"Coryell","lat":31.4177,"lng":-97.833},{"zip":"76530","city":"Granger","county":"Williamson","lat":30.7398,"lng":-97.4451},{"zip":"76531","city":"Hamilton","county":"Hamilton","lat":31.6781,"lng":-98.1131},{"zip":"76533","city":"Heidenheimer","county":"Bell","lat":31.0496,"lng":-97.4936},{"zip":"76534","city":"Holland","county":"Bell","lat":30.88,"lng":-97.3857},{"zip":"76537","city":"Jarrell","county":"Williamson","lat":30.8119,"lng":-97.5942},{"zip":"76538","city":"Jonesboro","county":"Coryell","lat":31.5599,"lng":-97.8456},{"zip":"76539","city":"Kempner","county":"Lampasas","lat":31.0887,"lng":-98.0099},{"zip":"76540","city":"Killeen","county":"Bell","lat":31.1171,"lng":-97.7278},{"zip":"76541","city":"Killeen","county":"Bell","lat":31.1164,"lng":-97.7278},{"zip":"76542","city":"Killeen","county":"Bell","lat":31.0376,"lng":-97.6809},{"zip":"76543","city":"Killeen","county":"Bell","lat":31.1172,"lng":-97.6651},{"zip":"76544","city":"Fort Hood","county":"Bell","lat":31.1349,"lng":-97.7756},{"zip":"76547","city":"Killeen","county":"Bell","lat":31.1171,"lng":-97.7278},{"zip":"76548","city":"Harker Heights","county":"Bell","lat":31.0286,"lng":-97.6115},{"zip":"76549","city":"Killeen","county":"Bell","lat":31.0065,"lng":-97.841},{"zip":"76550","city":"Lampasas","county":"Lampasas","lat":31.068,"lng":-98.1834},{"zip":"76554","city":"Little River Academy","county":"Bell","lat":30.9863,"lng":-97.3586},{"zip":"76556","city":"Milano","county":"Milam","lat":30.7304,"lng":-96.8807},{"zip":"76557","city":"Moody","county":"McLennan","lat":31.2533,"lng":-97.41},{"zip":"76558","city":"Mound","county":"Coryell","lat":31.3514,"lng":-97.6444},{"zip":"76559","city":"Nolanville","county":"Bell","lat":31.0833,"lng":-97.5941},{"zip":"76561","city":"Oglesby","county":"Coryell","lat":31.4438,"lng":-97.5501},{"zip":"76564","city":"Pendleton","county":"Bell","lat":31.1952,"lng":-97.3486},{"zip":"76565","city":"Pottsville","county":"Hamilton","lat":31.6732,"lng":-98.3256},{"zip":"76566","city":"Purmela","county":"Coryell","lat":31.4841,"lng":-97.9903},{"zip":"76567","city":"Rockdale","county":"Milam","lat":30.6583,"lng":-97.0079},{"zip":"76569","city":"Rogers","county":"Bell","lat":30.955,"lng":-97.2228},{"zip":"76570","city":"Rosebud","county":"Falls","lat":31.0922,"lng":-96.9755},{"zip":"76571","city":"Salado","county":"Bell","lat":30.9494,"lng":-97.533},{"zip":"76573","city":"Schwertner","county":"Williamson","lat":30.8155,"lng":-97.5142},{"zip":"76574","city":"Taylor","county":"Williamson","lat":30.5708,"lng":-97.4094},{"zip":"76577","city":"Thorndale","county":"Milam","lat":30.6082,"lng":-97.1764},{"zip":"76578","city":"Thrall","county":"Williamson","lat":30.592,"lng":-97.2893},{"zip":"76579","city":"Troy","county":"Bell","lat":31.1759,"lng":-97.2852},{"zip":"76596","city":"Gatesville","county":"Coryell","lat":31.3902,"lng":-97.7993},{"zip":"76597","city":"Gatesville","county":"Coryell","lat":31.3902,"lng":-97.7993},{"zip":"76598","city":"Gatesville","county":"Coryell","lat":31.3902,"lng":-97.7993},{"zip":"76599","city":"Gatesville","county":"Coryell","lat":31.4706,"lng":-97.7347},{"zip":"76621","city":"Abbott","county":"Hill","lat":31.8916,"lng":-97.0671},{"zip":"76622","city":"Aquilla","county":"Hill","lat":31.8589,"lng":-97.2258},{"zip":"76623","city":"Avalon","county":"Ellis","lat":32.2054,"lng":-96.79},{"zip":"76624","city":"Axtell","county":"McLennan","lat":31.661,"lng":-96.9882},{"zip":"76626","city":"Blooming Grove","county":"Navarro","lat":32.0758,"lng":-96.701},{"zip":"76627","city":"Blum","county":"Hill","lat":32.1052,"lng":-97.3652},{"zip":"76628","city":"Brandon","county":"Hill","lat":32.0457,"lng":-96.9606},{"zip":"76629","city":"Bremond","county":"Robertson","lat":31.156,"lng":-96.6697},{"zip":"76630","city":"Bruceville","county":"McLennan","lat":31.3267,"lng":-97.2342},{"zip":"76631","city":"Bynum","county":"Hill","lat":31.9907,"lng":-96.9837},{"zip":"76632","city":"Chilton","county":"Falls","lat":31.31,"lng":-97.09},{"zip":"76633","city":"China Spring","county":"McLennan","lat":31.6673,"lng":-97.3002},{"zip":"76634","city":"Clifton","county":"Bosque","lat":31.7918,"lng":-97.5203},{"zip":"76635","city":"Coolidge","county":"Limestone","lat":31.7438,"lng":-96.6577},{"zip":"76636","city":"Covington","county":"Hill","lat":32.1595,"lng":-97.2591},{"zip":"76637","city":"Cranfills Gap","county":"Bosque","lat":31.7486,"lng":-97.8113},{"zip":"76638","city":"Crawford","county":"McLennan","lat":31.5598,"lng":-97.39},{"zip":"76639","city":"Dawson","county":"Navarro","lat":31.8974,"lng":-96.7085},{"zip":"76640","city":"Elm Mott","county":"McLennan","lat":31.6725,"lng":-97.1138},{"zip":"76641","city":"Frost","county":"Navarro","lat":32.0275,"lng":-96.7684},{"zip":"76642","city":"Groesbeck","county":"Limestone","lat":31.5357,"lng":-96.5234},{"zip":"76643","city":"Hewitt","county":"McLennan","lat":31.4582,"lng":-97.1966},{"zip":"76644","city":"Laguna Park","county":"Bosque","lat":31.8593,"lng":-97.3797},{"zip":"76645","city":"Hillsboro","county":"Hill","lat":32.0149,"lng":-97.1198},{"zip":"76648","city":"Hubbard","county":"Hill","lat":31.8436,"lng":-96.8},{"zip":"76649","city":"Iredell","county":"Bosque","lat":31.9722,"lng":-97.8793},{"zip":"76650","city":"Irene","county":"Hill","lat":31.9921,"lng":-96.8714},{"zip":"76651","city":"Italy","county":"Ellis","lat":32.1785,"lng":-96.8823},{"zip":"76652","city":"Kopperl","county":"Bosque","lat":32.1035,"lng":-97.5421},{"zip":"76653","city":"Kosse","county":"Limestone","lat":31.3147,"lng":-96.6195},{"zip":"76654","city":"Leroy","county":"McLennan","lat":31.7316,"lng":-97.0178},{"zip":"76655","city":"Lorena","county":"McLennan","lat":31.4093,"lng":-97.2302},{"zip":"76656","city":"Lott","county":"Falls","lat":31.1925,"lng":-97.0581},{"zip":"76657","city":"Mc Gregor","county":"McLennan","lat":31.4431,"lng":-97.3943},{"zip":"76660","city":"Malone","county":"Hill","lat":31.924,"lng":-96.8907},{"zip":"76661","city":"Marlin","county":"Falls","lat":31.3036,"lng":-96.8889},{"zip":"76664","city":"Mart","county":"McLennan","lat":31.5458,"lng":-96.8381},{"zip":"76665","city":"Meridian","county":"Bosque","lat":31.929,"lng":-97.6443},{"zip":"76666","city":"Mertens","county":"Hill","lat":32.0275,"lng":-96.8981},{"zip":"76667","city":"Mexia","county":"Limestone","lat":31.6784,"lng":-96.4952},{"zip":"76670","city":"Milford","county":"Ellis","lat":32.1482,"lng":-96.9612},{"zip":"76671","city":"Morgan","county":"Bosque","lat":32.0195,"lng":-97.5608},{"zip":"76673","city":"Mount Calm","county":"Hill","lat":31.7575,"lng":-96.8944},{"zip":"76676","city":"Penelope","county":"Hill","lat":31.8551,"lng":-96.9372},{"zip":"76678","city":"Prairie Hill","county":"Limestone","lat":31.6591,"lng":-96.8094},{"zip":"76679","city":"Purdon","county":"Navarro","lat":31.9483,"lng":-96.5856},{"zip":"76680","city":"Reagan","county":"Falls","lat":31.1871,"lng":-96.7998},{"zip":"76681","city":"Richland","county":"Navarro","lat":31.9018,"lng":-96.4373},{"zip":"76682","city":"Riesel","county":"McLennan","lat":31.5002,"lng":-96.9476},{"zip":"76684","city":"Ross","county":"McLennan","lat":31.7173,"lng":-97.1188},{"zip":"76685","city":"Satin","county":"Falls","lat":31.3601,"lng":-97.0108},{"zip":"76686","city":"Tehuacana","county":"Limestone","lat":31.7504,"lng":-96.5416},{"zip":"76687","city":"Thornton","county":"Limestone","lat":31.4083,"lng":-96.5024},{"zip":"76689","city":"Valley Mills","county":"Bosque","lat":31.6599,"lng":-97.4935},{"zip":"76690","city":"Walnut Springs","county":"Bosque","lat":32.0593,"lng":-97.7514},{"zip":"76691","city":"West","county":"McLennan","lat":31.7754,"lng":-97.1258},{"zip":"76692","city":"Whitney","county":"Hill","lat":31.9713,"lng":-97.3463},{"zip":"76693","city":"Wortham","county":"Freestone","lat":31.7865,"lng":-96.4202},{"zip":"76701","city":"Waco","county":"McLennan","lat":31.5525,"lng":-97.1396},{"zip":"76702","city":"Waco","county":"McLennan","lat":31.5475,"lng":-97.1443},{"zip":"76703","city":"Waco","county":"McLennan","lat":31.5536,"lng":-97.2032},{"zip":"76704","city":"Waco","county":"McLennan","lat":31.5773,"lng":-97.1241},{"zip":"76705","city":"Waco","county":"McLennan","lat":31.6403,"lng":-97.0963},{"zip":"76706","city":"Waco","county":"McLennan","lat":31.5171,"lng":-97.1198},{"zip":"76707","city":"Waco","county":"McLennan","lat":31.5527,"lng":-97.1588},{"zip":"76708","city":"Waco","county":"McLennan","lat":31.5765,"lng":-97.1786},{"zip":"76710","city":"Waco","county":"McLennan","lat":31.535,"lng":-97.1899},{"zip":"76711","city":"Waco","county":"McLennan","lat":31.5175,"lng":-97.1547},{"zip":"76712","city":"Woodway","county":"McLennan","lat":31.5051,"lng":-97.2311},{"zip":"76714","city":"Waco","county":"McLennan","lat":31.5536,"lng":-97.2032},{"zip":"76715","city":"Waco","county":"McLennan","lat":31.5536,"lng":-97.2032},{"zip":"76716","city":"Waco","county":"McLennan","lat":31.5536,"lng":-97.2032},{"zip":"76797","city":"Waco","county":"McLennan","lat":31.5536,"lng":-97.2032},{"zip":"76798","city":"Waco","county":"McLennan","lat":31.547,"lng":-97.1203},{"zip":"76799","city":"Waco","county":"McLennan","lat":31.5411,"lng":-97.1615},{"zip":"76801","city":"Brownwood","county":"Brown","lat":31.7754,"lng":-98.9915},{"zip":"76802","city":"Early","county":"Brown","lat":31.7874,"lng":-98.9229},{"zip":"76803","city":"Early","county":"Brown","lat":31.7421,"lng":-98.9456},{"zip":"76804","city":"Brownwood","county":"Brown","lat":31.7742,"lng":-99.0921},{"zip":"76820","city":"Art","county":"Mason","lat":30.767,"lng":-99.0486},{"zip":"76821","city":"Ballinger","county":"Runnels","lat":31.7468,"lng":-99.9589},{"zip":"76823","city":"Bangs","county":"Brown","lat":31.7503,"lng":-99.1568},{"zip":"76824","city":"Bend","county":"Lampasas","lat":31.1123,"lng":-98.4821},{"zip":"76825","city":"Brady","county":"McCulloch","lat":31.1509,"lng":-99.3372},{"zip":"76827","city":"Brookesmith","county":"Brown","lat":31.5176,"lng":-99.1277},{"zip":"76828","city":"Burkett","county":"Coleman","lat":31.9986,"lng":-99.2553},{"zip":"76831","city":"Castell","county":"Llano","lat":30.701,"lng":-98.9564},{"zip":"76832","city":"Cherokee","county":"San Saba","lat":30.9806,"lng":-98.6633},{"zip":"76834","city":"Coleman","county":"Coleman","lat":31.8287,"lng":-99.427},{"zip":"76836","city":"Doole","county":"McCulloch","lat":31.3957,"lng":-99.599},{"zip":"76837","city":"Eden","county":"Concho","lat":31.2192,"lng":-99.8407},{"zip":"76841","city":"Fort Mc Kavett","county":"Menard","lat":30.829,"lng":-100.0809},{"zip":"76842","city":"Fredonia","county":"Mason","lat":30.9214,"lng":-99.1216},{"zip":"76844","city":"Goldthwaite","county":"Mills","lat":31.4458,"lng":-98.5744},{"zip":"76845","city":"Gouldbusk","county":"Coleman","lat":31.5549,"lng":-99.4767},{"zip":"76848","city":"Hext","county":"Menard","lat":30.8816,"lng":-99.554},{"zip":"76849","city":"Junction","county":"Kimble","lat":30.4754,"lng":-99.7473},{"zip":"76852","city":"Lohn","county":"McCulloch","lat":31.3173,"lng":-99.3833},{"zip":"76853","city":"Lometa","county":"Lampasas","lat":31.2167,"lng":-98.4006},{"zip":"76854","city":"London","county":"Kimble","lat":30.6768,"lng":-99.5765},{"zip":"76855","city":"Lowake","county":"Concho","lat":31.5663,"lng":-100.0759},{"zip":"76856","city":"Mason","county":"Mason","lat":30.7434,"lng":-99.2261},{"zip":"76857","city":"May","county":"Brown","lat":31.9571,"lng":-98.9656},{"zip":"76858","city":"Melvin","county":"McCulloch","lat":31.1952,"lng":-99.5798},{"zip":"76859","city":"Menard","county":"Menard","lat":30.9119,"lng":-99.7847},{"zip":"76861","city":"Miles","county":"Runnels","lat":31.6121,"lng":-100.1823},{"zip":"76862","city":"Millersview","county":"Concho","lat":31.4167,"lng":-99.7171},{"zip":"76864","city":"Mullin","county":"Mills","lat":31.5748,"lng":-98.6635},{"zip":"76865","city":"Norton","county":"Runnels","lat":31.8795,"lng":-100.1315},{"zip":"76866","city":"Paint Rock","county":"Concho","lat":31.5048,"lng":-99.9139},{"zip":"76869","city":"Pontotoc","county":"Mason","lat":30.8906,"lng":-99.0212},{"zip":"76870","city":"Priddy","county":"Mills","lat":31.641,"lng":-98.5276},{"zip":"76871","city":"Richland Springs","county":"San Saba","lat":31.3003,"lng":-98.9128},{"zip":"76872","city":"Rochelle","county":"McCulloch","lat":31.3,"lng":-99.1572},{"zip":"76873","city":"Rockwood","county":"Coleman","lat":31.5037,"lng":-99.3746},{"zip":"76874","city":"Roosevelt","county":"Kimble","lat":30.47,"lng":-100.0901},{"zip":"76875","city":"Rowena","county":"Runnels","lat":31.6436,"lng":-100.0191},{"zip":"76877","city":"San Saba","county":"San Saba","lat":31.1627,"lng":-98.7309},{"zip":"76878","city":"Santa Anna","county":"Coleman","lat":31.7215,"lng":-99.3212},{"zip":"76880","city":"Star","county":"Mills","lat":31.4685,"lng":-98.3161},{"zip":"76882","city":"Talpa","county":"Coleman","lat":31.8034,"lng":-99.6747},{"zip":"76883","city":"Telegraph","county":"Edwards","lat":30.3274,"lng":-99.9062},{"zip":"76884","city":"Valera","county":"Coleman","lat":31.7529,"lng":-99.5473},{"zip":"76885","city":"Valley Spring","county":"Llano","lat":30.866,"lng":-98.8357},{"zip":"76886","city":"Veribest","county":"Tom Green","lat":31.4766,"lng":-100.2595},{"zip":"76887","city":"Voca","county":"McCulloch","lat":30.9959,"lng":-99.1682},{"zip":"76888","city":"Voss","county":"Coleman","lat":31.5892,"lng":-99.6326},{"zip":"76890","city":"Zephyr","county":"Brown","lat":31.6694,"lng":-98.8182},{"zip":"76901","city":"San Angelo","county":"Tom Green","lat":31.4782,"lng":-100.4818},{"zip":"76902","city":"San Angelo","county":"Tom Green","lat":31.4638,"lng":-100.437},{"zip":"76903","city":"San Angelo","county":"Tom Green","lat":31.4707,"lng":-100.4386},{"zip":"76904","city":"San Angelo","county":"Tom Green","lat":31.4194,"lng":-100.48},{"zip":"76905","city":"San Angelo","county":"Tom Green","lat":31.4647,"lng":-100.39},{"zip":"76906","city":"San Angelo","county":"Tom Green","lat":31.4638,"lng":-100.437},{"zip":"76908","city":"Goodfellow Afb","county":"Tom Green","lat":31.4321,"lng":-100.4022},{"zip":"76909","city":"San Angelo","county":"Tom Green","lat":31.4638,"lng":-100.437},{"zip":"76930","city":"Barnhart","county":"Irion","lat":31.1596,"lng":-101.1918},{"zip":"76932","city":"Big Lake","county":"Reagan","lat":31.417,"lng":-101.5423},{"zip":"76933","city":"Bronte","county":"Coke","lat":31.8789,"lng":-100.2988},{"zip":"76934","city":"Carlsbad","county":"Tom Green","lat":31.6266,"lng":-100.6694},{"zip":"76935","city":"Christoval","county":"Tom Green","lat":31.2346,"lng":-100.5203},{"zip":"76936","city":"Eldorado","county":"Schleicher","lat":30.8667,"lng":-100.5889},{"zip":"76937","city":"Eola","county":"Concho","lat":31.3617,"lng":-100.0922},{"zip":"76939","city":"Knickerbocker","county":"Tom Green","lat":31.2501,"lng":-100.592},{"zip":"76940","city":"Mereta","county":"Tom Green","lat":31.4518,"lng":-100.1349},{"zip":"76941","city":"Mertzon","county":"Irion","lat":31.2829,"lng":-100.8221},{"zip":"76943","city":"Ozona","county":"Crockett","lat":30.7164,"lng":-101.2388},{"zip":"76945","city":"Robert Lee","county":"Coke","lat":31.8951,"lng":-100.5104},{"zip":"76949","city":"Silver","county":"Coke","lat":32.0484,"lng":-100.6922},{"zip":"76950","city":"Sonora","county":"Sutton","lat":30.5558,"lng":-100.6307},{"zip":"76951","city":"Sterling City","county":"Sterling","lat":31.8351,"lng":-101.0017},{"zip":"76953","city":"Tennyson","county":"Coke","lat":31.7397,"lng":-100.2884},{"zip":"76955","city":"Vancourt","county":"Tom Green","lat":31.3132,"lng":-100.1328},{"zip":"76957","city":"Wall","county":"Tom Green","lat":31.3741,"lng":-100.3076},{"zip":"76958","city":"Water Valley","county":"Tom Green","lat":31.6453,"lng":-100.716},{"zip":"77001","city":"Houston","county":"Harris","lat":29.8131,"lng":-95.3098},{"zip":"77002","city":"Houston","county":"Harris","lat":29.7594,"lng":-95.3594},{"zip":"77003","city":"Houston","county":"Harris","lat":29.7489,"lng":-95.3391},{"zip":"77004","city":"Houston","county":"Harris","lat":29.7247,"lng":-95.3625},{"zip":"77005","city":"Houston","county":"Harris","lat":29.7179,"lng":-95.4263},{"zip":"77006","city":"Houston","county":"Harris","lat":29.7409,"lng":-95.3923},{"zip":"77007","city":"Houston","county":"Harris","lat":29.7736,"lng":-95.4034},{"zip":"77008","city":"Houston","county":"Harris","lat":29.7991,"lng":-95.4118},{"zip":"77009","city":"Houston","county":"Harris","lat":29.7936,"lng":-95.3675},{"zip":"77010","city":"Houston","county":"Harris","lat":29.7543,"lng":-95.3609},{"zip":"77011","city":"Houston","county":"Harris","lat":29.742,"lng":-95.3073},{"zip":"77012","city":"Houston","county":"Harris","lat":29.7149,"lng":-95.2819},{"zip":"77013","city":"Houston","county":"Harris","lat":29.7842,"lng":-95.2301},{"zip":"77014","city":"Houston","county":"Harris","lat":29.9796,"lng":-95.4625},{"zip":"77015","city":"Houston","county":"Harris","lat":29.7853,"lng":-95.1852},{"zip":"77016","city":"Houston","county":"Harris","lat":29.8579,"lng":-95.3032},{"zip":"77017","city":"Houston","county":"Harris","lat":29.6863,"lng":-95.2555},{"zip":"77018","city":"Houston","county":"Harris","lat":29.8272,"lng":-95.4266},{"zip":"77019","city":"Houston","county":"Harris","lat":29.7517,"lng":-95.4054},{"zip":"77020","city":"Houston","county":"Harris","lat":29.7758,"lng":-95.3121},{"zip":"77021","city":"Houston","county":"Harris","lat":29.6954,"lng":-95.3562},{"zip":"77022","city":"Houston","county":"Harris","lat":29.8299,"lng":-95.3769},{"zip":"77023","city":"Houston","county":"Harris","lat":29.7242,"lng":-95.3178},{"zip":"77024","city":"Houston","county":"Harris","lat":29.7696,"lng":-95.5201},{"zip":"77025","city":"Houston","county":"Harris","lat":29.6889,"lng":-95.4341},{"zip":"77026","city":"Houston","county":"Harris","lat":29.7972,"lng":-95.3288},{"zip":"77027","city":"Houston","county":"Harris","lat":29.7396,"lng":-95.446},{"zip":"77028","city":"Houston","county":"Harris","lat":29.8297,"lng":-95.2879},{"zip":"77029","city":"Houston","county":"Harris","lat":29.763,"lng":-95.2567},{"zip":"77030","city":"Houston","county":"Harris","lat":29.7041,"lng":-95.401},{"zip":"77031","city":"Houston","county":"Harris","lat":29.6581,"lng":-95.5413},{"zip":"77032","city":"Houston","county":"Harris","lat":29.9368,"lng":-95.3299},{"zip":"77033","city":"Houston","county":"Harris","lat":29.6686,"lng":-95.3382},{"zip":"77034","city":"Houston","county":"Harris","lat":29.6364,"lng":-95.2216},{"zip":"77035","city":"Houston","county":"Harris","lat":29.6518,"lng":-95.4854},{"zip":"77036","city":"Houston","county":"Harris","lat":29.6984,"lng":-95.5405},{"zip":"77037","city":"Houston","county":"Harris","lat":29.8892,"lng":-95.3935},{"zip":"77038","city":"Houston","county":"Harris","lat":29.9196,"lng":-95.4386},{"zip":"77039","city":"Houston","county":"Harris","lat":29.9067,"lng":-95.3334},{"zip":"77040","city":"Houston","county":"Harris","lat":29.8744,"lng":-95.5278},{"zip":"77041","city":"Houston","county":"Harris","lat":29.8602,"lng":-95.5817},{"zip":"77042","city":"Houston","county":"Harris","lat":29.7404,"lng":-95.5589},{"zip":"77043","city":"Houston","county":"Harris","lat":29.8052,"lng":-95.5607},{"zip":"77044","city":"Houston","county":"Harris","lat":29.8635,"lng":-95.1976},{"zip":"77045","city":"Houston","county":"Harris","lat":29.6297,"lng":-95.4382},{"zip":"77046","city":"Houston","county":"Harris","lat":29.733,"lng":-95.4306},{"zip":"77047","city":"Houston","county":"Harris","lat":29.6254,"lng":-95.375},{"zip":"77048","city":"Houston","county":"Harris","lat":29.6321,"lng":-95.3416},{"zip":"77049","city":"Houston","county":"Harris","lat":29.8235,"lng":-95.1848},{"zip":"77050","city":"Houston","county":"Harris","lat":29.9015,"lng":-95.2848},{"zip":"77051","city":"Houston","county":"Harris","lat":29.6579,"lng":-95.3688},{"zip":"77052","city":"Houston","county":"Harris","lat":29.7633,"lng":-95.3633},{"zip":"77053","city":"Houston","county":"Harris","lat":29.5962,"lng":-95.4587},{"zip":"77054","city":"Houston","county":"Harris","lat":29.6852,"lng":-95.4017},{"zip":"77055","city":"Houston","county":"Harris","lat":29.7971,"lng":-95.4958},{"zip":"77056","city":"Houston","county":"Harris","lat":29.7446,"lng":-95.4683},{"zip":"77057","city":"Houston","county":"Harris","lat":29.7422,"lng":-95.4903},{"zip":"77058","city":"Houston","county":"Harris","lat":29.5716,"lng":-95.0998},{"zip":"77059","city":"Houston","county":"Harris","lat":29.5975,"lng":-95.1134},{"zip":"77060","city":"Houston","county":"Harris","lat":29.9335,"lng":-95.3981},{"zip":"77061","city":"Houston","county":"Harris","lat":29.6652,"lng":-95.279},{"zip":"77062","city":"Houston","county":"Harris","lat":29.5721,"lng":-95.1303},{"zip":"77063","city":"Houston","county":"Harris","lat":29.7348,"lng":-95.522},{"zip":"77064","city":"Houston","county":"Harris","lat":29.919,"lng":-95.5569},{"zip":"77065","city":"Houston","county":"Harris","lat":29.9319,"lng":-95.6106},{"zip":"77066","city":"Houston","county":"Harris","lat":29.961,"lng":-95.4947},{"zip":"77067","city":"Houston","county":"Harris","lat":29.9547,"lng":-95.4522},{"zip":"77068","city":"Houston","county":"Harris","lat":30.0069,"lng":-95.4897},{"zip":"77069","city":"Houston","county":"Harris","lat":29.9863,"lng":-95.5208},{"zip":"77070","city":"Houston","county":"Harris","lat":29.9781,"lng":-95.5803},{"zip":"77071","city":"Houston","county":"Harris","lat":29.6518,"lng":-95.5176},{"zip":"77072","city":"Houston","county":"Harris","lat":29.699,"lng":-95.5862},{"zip":"77073","city":"Houston","county":"Harris","lat":30.0198,"lng":-95.4087},{"zip":"77074","city":"Houston","county":"Harris","lat":29.6896,"lng":-95.5106},{"zip":"77075","city":"Houston","county":"Harris","lat":29.6223,"lng":-95.26},{"zip":"77076","city":"Houston","county":"Harris","lat":29.858,"lng":-95.3834},{"zip":"77077","city":"Houston","county":"Harris","lat":29.7477,"lng":-95.603},{"zip":"77078","city":"Houston","county":"Harris","lat":29.8497,"lng":-95.2582},{"zip":"77079","city":"Houston","county":"Harris","lat":29.7738,"lng":-95.598},{"zip":"77080","city":"Houston","county":"Harris","lat":29.8159,"lng":-95.523},{"zip":"77081","city":"Houston","county":"Harris","lat":29.7119,"lng":-95.4845},{"zip":"77082","city":"Houston","county":"Harris","lat":29.7223,"lng":-95.6285},{"zip":"77083","city":"Houston","county":"Harris","lat":29.6947,"lng":-95.6511},{"zip":"77084","city":"Houston","county":"Harris","lat":29.844,"lng":-95.6623},{"zip":"77085","city":"Houston","county":"Harris","lat":29.6218,"lng":-95.4819},{"zip":"77086","city":"Houston","county":"Harris","lat":29.9227,"lng":-95.4939},{"zip":"77087","city":"Houston","county":"Harris","lat":29.6876,"lng":-95.3011},{"zip":"77088","city":"Houston","county":"Harris","lat":29.8817,"lng":-95.4539},{"zip":"77089","city":"Houston","county":"Harris","lat":29.594,"lng":-95.2218},{"zip":"77090","city":"Houston","county":"Harris","lat":30.0167,"lng":-95.447},{"zip":"77091","city":"Houston","county":"Harris","lat":29.8534,"lng":-95.4435},{"zip":"77092","city":"Houston","county":"Harris","lat":29.8324,"lng":-95.472},{"zip":"77093","city":"Houston","county":"Harris","lat":29.8617,"lng":-95.3403},{"zip":"77094","city":"Houston","county":"Harris","lat":29.7705,"lng":-95.7107},{"zip":"77095","city":"Houston","county":"Harris","lat":29.8941,"lng":-95.6481},{"zip":"77096","city":"Houston","county":"Harris","lat":29.6722,"lng":-95.4861},{"zip":"77098","city":"Houston","county":"Harris","lat":29.735,"lng":-95.4118},{"zip":"77099","city":"Houston","county":"Harris","lat":29.6709,"lng":-95.5866},{"zip":"77201","city":"Houston","county":"Harris","lat":29.7633,"lng":-95.3633},{"zip":"77202","city":"Houston","county":"Harris","lat":29.834,"lng":-95.4342},{"zip":"77203","city":"Houston","county":"Harris","lat":29.7633,"lng":-95.3633},{"zip":"77204","city":"Houston","county":"Harris","lat":29.834,"lng":-95.4342},{"zip":"77205","city":"Houston","county":"Harris","lat":29.834,"lng":-95.4342},{"zip":"77206","city":"Houston","county":"Harris","lat":29.834,"lng":-95.4342},{"zip":"77207","city":"Houston","county":"Harris","lat":29.834,"lng":-95.4342},{"zip":"77208","city":"Houston","county":"Harris","lat":29.7633,"lng":-95.3633},{"zip":"77209","city":"Houston","county":"Harris","lat":29.7633,"lng":-95.3633},{"zip":"77210","city":"Houston","county":"Harris","lat":29.7633,"lng":-95.3633},{"zip":"77212","city":"Houston","county":"Harris","lat":29.7633,"lng":-95.3633},{"zip":"77213","city":"Houston","county":"Harris","lat":29.834,"lng":-95.4342},{"zip":"77215","city":"Houston","county":"Harris","lat":29.834,"lng":-95.4342},{"zip":"77216","city":"Houston","county":"Harris","lat":29.834,"lng":-95.4342},{"zip":"77217","city":"Houston","county":"Harris","lat":29.834,"lng":-95.4342},{"zip":"77218","city":"Houston","county":"Harris","lat":29.834,"lng":-95.4342},{"zip":"77219","city":"Houston","county":"Harris","lat":29.834,"lng":-95.4342},{"zip":"77220","city":"Houston","county":"Harris","lat":29.834,"lng":-95.4342},{"zip":"77221","city":"Houston","county":"Harris","lat":29.834,"lng":-95.4342},{"zip":"77222","city":"Houston","county":"Harris","lat":29.834,"lng":-95.4342},{"zip":"77223","city":"Houston","county":"Harris","lat":29.834,"lng":-95.4342},{"zip":"77224","city":"Houston","county":"Harris","lat":29.834,"lng":-95.4342},{"zip":"77225","city":"Houston","county":"Harris","lat":29.834,"lng":-95.4342},{"zip":"77226","city":"Houston","county":"Harris","lat":29.834,"lng":-95.4342},{"zip":"77227","city":"Houston","county":"Harris","lat":29.834,"lng":-95.4342},{"zip":"77228","city":"Houston","county":"Harris","lat":29.834,"lng":-95.4342},{"zip":"77229","city":"Houston","county":"Harris","lat":29.834,"lng":-95.4342},{"zip":"77230","city":"Houston","county":"Harris","lat":29.834,"lng":-95.4342},{"zip":"77231","city":"Houston","county":"Harris","lat":29.834,"lng":-95.4342},{"zip":"77233","city":"Houston","county":"Harris","lat":29.834,"lng":-95.4342},{"zip":"77234","city":"Houston","county":"Harris","lat":29.834,"lng":-95.4342},{"zip":"77235","city":"Houston","county":"Harris","lat":29.834,"lng":-95.4342},{"zip":"77236","city":"Houston","county":"Harris","lat":29.834,"lng":-95.4342},{"zip":"77237","city":"Houston","county":"Harris","lat":29.834,"lng":-95.4342},{"zip":"77238","city":"Houston","county":"Harris","lat":29.834,"lng":-95.4342},{"zip":"77240","city":"Houston","county":"Harris","lat":29.834,"lng":-95.4342},{"zip":"77241","city":"Houston","county":"Harris","lat":29.834,"lng":-95.4342},{"zip":"77242","city":"Houston","county":"Harris","lat":29.834,"lng":-95.4342},{"zip":"77243","city":"Houston","county":"Harris","lat":29.834,"lng":-95.4342},{"zip":"77244","city":"Houston","county":"Harris","lat":29.834,"lng":-95.4342},{"zip":"77245","city":"Houston","county":"Harris","lat":29.834,"lng":-95.4342},{"zip":"77248","city":"Houston","county":"Harris","lat":29.834,"lng":-95.4342},{"zip":"77249","city":"Houston","county":"Harris","lat":29.834,"lng":-95.4342},{"zip":"77251","city":"Houston","county":"Harris","lat":29.834,"lng":-95.4342},{"zip":"77252","city":"Houston","county":"Harris","lat":29.7633,"lng":-95.3633},{"zip":"77253","city":"Houston","county":"Harris","lat":29.7633,"lng":-95.3633},{"zip":"77254","city":"Houston","county":"Harris","lat":29.834,"lng":-95.4342},{"zip":"77255","city":"Houston","county":"Harris","lat":29.834,"lng":-95.4342},{"zip":"77256","city":"Houston","county":"Harris","lat":29.834,"lng":-95.4342},{"zip":"77257","city":"Houston","county":"Harris","lat":29.834,"lng":-95.4342},{"zip":"77258","city":"Houston","county":"Harris","lat":29.834,"lng":-95.4342},{"zip":"77259","city":"Houston","county":"Harris","lat":29.834,"lng":-95.4342},{"zip":"77261","city":"Houston","county":"Harris","lat":29.834,"lng":-95.4342},{"zip":"77262","city":"Houston","county":"Harris","lat":29.834,"lng":-95.4342},{"zip":"77263","city":"Houston","county":"Harris","lat":29.834,"lng":-95.4342},{"zip":"77265","city":"Houston","county":"Harris","lat":29.834,"lng":-95.4342},{"zip":"77266","city":"Houston","county":"Harris","lat":29.834,"lng":-95.4342},{"zip":"77267","city":"Houston","county":"Harris","lat":29.834,"lng":-95.4342},{"zip":"77268","city":"Houston","county":"Harris","lat":29.834,"lng":-95.4342},{"zip":"77269","city":"Houston","county":"Harris","lat":29.834,"lng":-95.4342},{"zip":"77270","city":"Houston","county":"Harris","lat":29.834,"lng":-95.4342},{"zip":"77271","city":"Houston","county":"Harris","lat":29.834,"lng":-95.4342},{"zip":"77272","city":"Houston","county":"Harris","lat":29.834,"lng":-95.4342},{"zip":"77273","city":"Houston","county":"Harris","lat":29.834,"lng":-95.4342},{"zip":"77274","city":"Houston","county":"Harris","lat":29.834,"lng":-95.4342},{"zip":"77275","city":"Houston","county":"Harris","lat":29.834,"lng":-95.4342},{"zip":"77277","city":"Houston","county":"Harris","lat":29.834,"lng":-95.4342},{"zip":"77279","city":"Houston","county":"Harris","lat":29.834,"lng":-95.4342},{"zip":"77280","city":"Houston","county":"Harris","lat":29.834,"lng":-95.4342},{"zip":"77282","city":"Houston","county":"Harris","lat":29.834,"lng":-95.4342},{"zip":"77284","city":"Houston","county":"Harris","lat":29.834,"lng":-95.4342},{"zip":"77287","city":"Houston","county":"Harris","lat":29.834,"lng":-95.4342},{"zip":"77288","city":"Houston","county":"Harris","lat":29.834,"lng":-95.4342},{"zip":"77289","city":"Houston","county":"Harris","lat":29.834,"lng":-95.4342},{"zip":"77290","city":"Houston","county":"Harris","lat":29.834,"lng":-95.4342},{"zip":"77291","city":"Houston","county":"Harris","lat":29.834,"lng":-95.4342},{"zip":"77292","city":"Houston","county":"Harris","lat":29.7443,"lng":-95.3326},{"zip":"77293","city":"Houston","county":"Harris","lat":29.834,"lng":-95.4342},{"zip":"77297","city":"Houston","county":"Harris","lat":29.7633,"lng":-95.3633},{"zip":"77299","city":"Houston","county":"Harris","lat":29.834,"lng":-95.4342},{"zip":"77301","city":"Conroe","county":"Montgomery","lat":30.3125,"lng":-95.4527},{"zip":"77302","city":"Conroe","county":"Montgomery","lat":30.2238,"lng":-95.3577},{"zip":"77303","city":"Conroe","county":"Montgomery","lat":30.3814,"lng":-95.3749},{"zip":"77304","city":"Conroe","county":"Montgomery","lat":30.3217,"lng":-95.5285},{"zip":"77305","city":"Conroe","county":"Montgomery","lat":30.2906,"lng":-95.3832},{"zip":"77306","city":"Conroe","county":"Montgomery","lat":30.2277,"lng":-95.2851},{"zip":"77315","city":"North Houston","county":"Harris","lat":29.834,"lng":-95.4342},{"zip":"77316","city":"Montgomery","county":"Montgomery","lat":30.3587,"lng":-95.6857},{"zip":"77318","city":"Willis","county":"Montgomery","lat":30.4416,"lng":-95.5394},{"zip":"77320","city":"Huntsville","county":"Walker","lat":30.847,"lng":-95.597},{"zip":"77325","city":"Kingwood","county":"Harris","lat":30.0569,"lng":-95.1835},{"zip":"77326","city":"Ace","county":"Polk","lat":30.5209,"lng":-94.8221},{"zip":"77327","city":"Cleveland","county":"Liberty","lat":30.33,"lng":-95.0202},{"zip":"77328","city":"Cleveland","county":"Liberty","lat":30.3963,"lng":-95.194},{"zip":"77331","city":"Coldspring","county":"San Jacinto","lat":30.6027,"lng":-95.1086},{"zip":"77332","city":"Dallardsville","county":"Polk","lat":30.6285,"lng":-94.6319},{"zip":"77333","city":"Dobbin","county":"Montgomery","lat":30.3365,"lng":-95.7723},{"zip":"77334","city":"Dodge","county":"Walker","lat":30.772,"lng":-95.3838},{"zip":"77335","city":"Goodrich","county":"Polk","lat":30.6079,"lng":-94.9592},{"zip":"77336","city":"Huffman","county":"Harris","lat":30.0565,"lng":-95.1051},{"zip":"77337","city":"Hufsmith","county":"Harris","lat":30.1222,"lng":-95.5966},{"zip":"77338","city":"Humble","county":"Harris","lat":30.0041,"lng":-95.2825},{"zip":"77339","city":"Kingwood","county":"Harris","lat":30.0569,"lng":-95.1835},{"zip":"77340","city":"Huntsville","county":"Walker","lat":30.6448,"lng":-95.5798},{"zip":"77341","city":"Huntsville","county":"Walker","lat":30.7142,"lng":-95.5508},{"zip":"77342","city":"Huntsville","county":"Walker","lat":30.7813,"lng":-95.5953},{"zip":"77343","city":"Huntsville","county":"Walker","lat":30.7235,"lng":-95.5508},{"zip":"77344","city":"Huntsville","county":"Walker","lat":30.7235,"lng":-95.5508},{"zip":"77345","city":"Kingwood","county":"Harris","lat":30.0336,"lng":-95.261},{"zip":"77346","city":"Humble","county":"Harris","lat":30.0042,"lng":-95.1728},{"zip":"77347","city":"Humble","county":"Harris","lat":29.9988,"lng":-95.2622},{"zip":"77348","city":"Huntsville","county":"Walker","lat":30.7235,"lng":-95.5508},{"zip":"77349","city":"Huntsville","county":"Walker","lat":30.7235,"lng":-95.5508},{"zip":"77350","city":"Leggett","county":"Polk","lat":30.8568,"lng":-94.8561},